,index,Unnamed: 0,Animal ID,Name,DateTime,MonthYear,Intake Type,Intake Condition,Animal Type,Sex upon Intake,Age upon Intake,Breed,Color,Address,City,State,Address,Latitude,Longitude
0,0,13,A773634,Augie,2018-06-03 15:26:00,06/03/2018 03:26:00 PM,Stray,Normal,Dog,Intact Male,10 years,Dachshund Mix,Red,Braker And Ih35,Austin ,TX,Braker And Ih35 Austin  TX,30.3777146,-97.6763672
1,1,19,A782291,,2018-10-13 10:59:00,10/13/2018 10:59:00 AM,Stray,Normal,Dog,Intact Female,2 years,Labrador Retriever Mix,Yellow,127 North Webberville Road,Travis ,TX,127 North Webberville Road Travis  TX,30.2760506,-97.68884639999999
2,2,23,A782085,Luna,2018-10-10 13:21:00,10/10/2018 01:21:00 PM,Stray,Normal,Dog,Intact Female,1 month,Black Mouth Cur Mix,Brown/Black,6405 South Ih 35 Frontage Road,Austin ,TX,6405 South Ih 35 Frontage Road Austin  TX,30.1914238,-97.76713509999999
3,3,38,A783925,,2018-11-08 17:56:00,11/08/2018 05:56:00 PM,Stray,Normal,Dog,Intact Female,1 year,Pit Bull,White/Black,2303 Wagon Grossing Path,Austin ,TX,2303 Wagon Grossing Path Austin  TX,30.1921186,-97.7558672
4,4,46,A768476,*Fialla,2018-03-20 10:57:00,03/20/2018 10:57:00 AM,Stray,Normal,Dog,Intact Female,2 years,Smooth Fox Terrier Mix,White/Tricolor,22718 Big Sandy Drive,Travis ,TX,22718 Big Sandy Drive Travis  TX,30.5705136,-97.9496944
5,5,48,A776610,Ruby,2018-07-16 15:33:00,07/16/2018 03:33:00 PM,Stray,Normal,Cat,Intact Female,1 month,Domestic Shorthair Mix,Blue Tabby,815 W Slaughter Ln,Austin ,TX,815 W Slaughter Ln Austin  TX,30.17321239999999,-97.8065848
6,6,63,A777688,*Rook,2018-08-01 13:11:00,08/01/2018 01:11:00 PM,Stray,Normal,Dog,Intact Male,1 year,Pit Bull Mix,Blue/White,15010 Fm 1825,Pflugerville ,TX,15010 Fm 1825 Pflugerville  TX,30.4430922,-97.66580239999999
7,7,75,A765493,*Milk Shake,2018-01-21 12:33:00,01/21/2018 12:33:00 PM,Stray,Normal,Dog,Intact Male,1 year,Pit Bull Mix,White/Brown,12330 Soith Ih 35 Frontage Road,Austin ,TX,12330 Soith Ih 35 Frontage Road Austin  TX,30.1199598,-97.8043735
8,8,81,A773687,*Joan Cusack,2018-06-04 12:48:00,06/04/2018 12:48:00 PM,Stray,Normal,Cat,Intact Female,1 month,Domestic Shorthair,Torbie,Riverside Drive And Pleasant Vally,Austin ,TX,Riverside Drive And Pleasant Vally Austin  TX,30.234143,-97.7228689
9,9,97,A711096,Schatzi,2018-07-26 12:46:00,07/26/2018 12:46:00 PM,Stray,Normal,Dog,Spayed Female,5 years,American Staffordshire Terrier Mix,Blue/White,710 East Ben White Boulevard,Austin ,TX,710 East Ben White Boulevard Austin  TX,30.2203767,-97.754233
10,10,104,A782729,*Remus,2018-10-20 12:24:00,10/20/2018 12:24:00 PM,Stray,Normal,Dog,Intact Male,2 years,Flat Coat Retriever Mix,Blue/White,Slaughter Lane And Interstate 35,Austin ,TX,Slaughter Lane And Interstate 35 Austin  TX,30.1667137,-97.7844827
11,11,108,A783151,,2018-10-26 08:11:00,10/26/2018 08:11:00 AM,Stray,Normal,Cat,Intact Male,3 weeks,Domestic Shorthair Mix,Brown Tabby/White,Anderson Mill & Olson Rd,Austin ,TX,Anderson Mill & Olson Rd Austin  TX,30.4471481,-97.80403319999999
12,12,115,A780724,,2018-09-19 13:36:00,09/19/2018 01:36:00 PM,Stray,Normal,Cat,Intact Male,2 months,Domestic Shorthair Mix,Blue,902 B Sirocco Drive,Austin ,TX,902 B Sirocco Drive Austin  TX,30.2033267,-97.78974769999999
13,13,118,A780913,,2018-09-21 18:47:00,09/21/2018 06:47:00 PM,Stray,Normal,Cat,Intact Female,3 months,Domestic Shorthair Mix,Black/White,5207 Pine Place,Austin ,TX,5207 Pine Place Austin  TX,30.1983761,-97.74856679999999
14,14,124,A783210,,2018-10-27 11:03:00,10/27/2018 11:03:00 AM,Stray,Normal,Dog,Intact Female,3 weeks,Chinese Sharpei Mix,White/Brown,6102 Kidneywood Trl,Austin ,TX,6102 Kidneywood Trl Austin  TX,30.250307,-97.88352100000002
15,15,126,A783404,,2018-10-30 13:05:00,10/30/2018 01:05:00 PM,Stray,Normal,Dog,Intact Female,5 years,Chihuahua Shorthair/Dachshund,Black/White,2601 Cardinal Loop,Del Valle ,TX,2601 Cardinal Loop Del Valle  TX,30.2133248,-97.6570574
16,16,136,A766218,Gizmo,2018-02-04 15:57:00,02/04/2018 03:57:00 PM,Stray,Normal,Dog,Neutered Male,10 years,Pekingese Mix,Tricolor,Springdale Road And Ledesma,Austin ,TX,Springdale Road And Ledesma Austin  TX,30.2740168,-97.6901542
17,17,137,A779895,*Ginger,2018-09-06 14:01:00,09/06/2018 02:01:00 PM,Stray,Normal,Cat,Intact Male,4 weeks,Domestic Shorthair Mix,Orange Tabby,12100 Tunnel Trail,Austin ,TX,12100 Tunnel Trail Austin  TX,30.134665,-97.8199056
18,18,155,A765890,,2018-01-29 13:56:00,01/29/2018 01:56:00 PM,Stray,Normal,Cat,Unknown,1 year,Domestic Shorthair Mix,Brown Tabby,20602 Fm 1431,Leander ,TX,20602 Fm 1431 Leander  TX,30.4745516,-97.9739702
19,19,170,A767793,,2018-03-06 16:34:00,03/06/2018 04:34:00 PM,Stray,Normal,Cat,Unknown,2 weeks,Domestic Shorthair,Brown Tabby,5639 Airport Boulevard,Austin ,TX,5639 Airport Boulevard Austin  TX,30.3187604,-97.71129119999999
20,20,178,A785322,Milo,2018-12-01 11:43:00,12/01/2018 11:43:00 AM,Stray,Normal,Dog,Intact Male,3 years,Doberman Pinsch,Blue/Tan,Fm 973 And 71,Austin ,TX,Fm 973 And 71 Austin  TX,30.2024274,-97.6396189
21,21,180,A781297,*Manicotti,2018-09-27 08:18:00,09/27/2018 08:18:00 AM,Stray,Normal,Cat,Intact Male,1 month,Domestic Shorthair Mix,Brown Tiger,7201 Levander Loop,Austin ,TX,7201 Levander Loop Austin  TX,30.2527847,-97.6904186
22,22,197,A786122,*Cool Whip,2018-12-17 12:46:00,12/17/2018 12:46:00 PM,Stray,Normal,Cat,Neutered Male,1 year,Domestic Shorthair Mix,Brown Tabby,Teri Road And Pleasant Valley,Austin ,TX,Teri Road And Pleasant Valley Austin  TX,30.1969636,-97.74414449999999
23,23,206,A784962,Misty,2018-11-23 18:35:00,11/23/2018 06:35:00 PM,Stray,Normal,Dog,Spayed Female,2 years,Cairn Terrier Mix,Black/White,8312 Fathom Circle,Austin ,TX,8312 Fathom Circle Austin  TX,30.4361463,-97.7761077
24,24,217,A767158,,2018-02-24 14:24:00,02/24/2018 02:24:00 PM,Stray,Normal,Cat,Intact Male,1 month,Domestic Medium Hair Mix,Orange Tabby/White,8311 Evelyn Road,Travis ,TX,8311 Evelyn Road Travis  TX,30.071428,-97.68959699999999
25,25,225,A766507,,2018-02-10 15:30:00,02/10/2018 03:30:00 PM,Stray,Normal,Cat,Intact Female,1 year,Domestic Shorthair Mix,Orange Tabby,5400 West Parmer Lane,Austin ,TX,5400 West Parmer Lane Austin  TX,30.4367138,-97.7328567
26,26,226,A775108,*Miki,2018-06-24 15:17:00,06/24/2018 03:17:00 PM,Stray,Normal,Cat,Intact Female,8 months,Domestic Medium Hair Mix,Black/White,1156 West Cesar Chavez Street,Austin ,TX,1156 West Cesar Chavez Street Austin  TX,30.269764,-97.7591144
27,27,229,A768831,Champ,2018-03-25 17:08:00,03/25/2018 05:08:00 PM,Stray,Normal,Dog,Intact Male,8 years,Dachshund,Red,Pearl Retreat Lane And Dessau Road,Austin ,TX,Pearl Retreat Lane And Dessau Road Austin  TX,30.3924694,-97.64579769999999
28,28,255,A783638,Ms Polly Dee,2018-11-03 12:56:00,11/03/2018 12:56:00 PM,Stray,Normal,Cat,Intact Female,7 months,Domestic Shorthair Mix,Black/White,908 Bret Lane,Austin ,TX,908 Bret Lane Austin  TX,30.256173,-97.68864699999999
29,29,256,A785913,*Santa,2018-12-12 15:45:00,12/12/2018 03:45:00 PM,Stray,Normal,Cat,Intact Male,1 month,Domestic Shorthair Mix,Brown Tabby,14107 Sleepy Hollow Drive,Pflugerville ,TX,14107 Sleepy Hollow Drive Pflugerville  TX,30.4114313,-97.63211720000001
30,30,266,A767955,Ghost,2018-03-10 10:18:00,03/10/2018 10:18:00 AM,Stray,Normal,Dog,Intact Male,2 months,Pit Bull/Australian Cattle Dog,White/Tan,21121 Hogeye Road,Manor ,TX,21121 Hogeye Road Manor  TX,30.2975383,-97.48190249999999
31,31,277,A772554,Muneca,2018-05-21 10:35:00,05/21/2018 10:35:00 AM,Stray,Normal,Dog,Spayed Female,5 years,Norfolk Terrier Mix,Tan,Crownridge Road And Village Green Drive,Austin ,TX,Crownridge Road And Village Green Drive Austin  TX,30.3556064,-97.68221369999999
32,32,304,A774688,,2018-06-18 17:55:00,06/18/2018 05:55:00 PM,Stray,Normal,Cat,Intact Male,2 weeks,Domestic Shorthair Mix,Black,706 B West Ben White,Austin ,TX,706 B West Ben White Austin  TX,30.2283886,-97.7694726
33,33,307,A778006,*Holden,2018-08-07 11:45:00,08/07/2018 11:45:00 AM,Stray,Normal,Cat,Intact Male,1 month,Domestic Shorthair Mix,Orange Tabby,933 Coronation Way,Pflugerville ,TX,933 Coronation Way Pflugerville  TX,30.4274652,-97.63949029999999
34,34,323,A776375,*Maddie,2018-07-12 15:07:00,07/12/2018 03:07:00 PM,Stray,Normal,Cat,Intact Female,5 weeks,Domestic Shorthair Mix,Calico,Research Boulevard,Austin ,TX,Research Boulevard Austin  TX,30.414693,-97.7464844
35,35,328,A779651,,2018-09-04 12:03:00,09/04/2018 12:03:00 PM,Stray,Normal,Dog,Intact Male,7 months,Australian Cattle Dog Mix,Tricolor/Tan,2200 Garden Street,Austin ,TX,2200 Garden Street Austin  TX,30.2530959,-97.7217484
36,36,350,A770026,,2018-04-14 12:39:00,04/14/2018 12:39:00 PM,Stray,Normal,Cat,Unknown,4 days,Domestic Shorthair Mix,Brown Tabby,5918 Alsace Trail,Austin ,TX,5918 Alsace Trail Austin  TX,30.2904503,-97.6462708
37,37,380,A779016,Yuri,2018-08-24 12:23:00,08/24/2018 12:23:00 PM,Stray,Normal,Dog,Intact Male,5 months,Siberian Husky Mix,White,13712 Fm 969 Rd,Travis ,TX,13712 Fm 969 Rd Travis  TX,30.2503289,-97.5879164
38,38,392,A769055,,2018-03-29 16:23:00,03/29/2018 04:23:00 PM,Stray,Normal,Cat,Unknown,2 weeks,Domestic Shorthair Mix,Cream,1208 Coaches Crossing,Pflugerville ,TX,1208 Coaches Crossing Pflugerville  TX,30.4451534,-97.6567395
39,39,393,A782071,*Violet,2018-10-10 12:13:00,10/10/2018 12:13:00 PM,Stray,Normal,Dog,Intact Female,1 year,Pit Bull/Weimaraner,Blue/White,East Sprindale Road And Martin Luther King Boulevard,Austin ,TX,East Sprindale Road And Martin Luther King Boulevard Austin  TX,30.28583459999999,-97.6826564
40,40,396,A781021,,2018-09-23 15:13:00,09/23/2018 03:13:00 PM,Stray,Normal,Dog,Intact Male,3 months,Pit Bull Mix,Brown Brindle/White,2305 East 22Nd Street,Austin ,TX,2305 East 22Nd Street Austin  TX,30.2834196,-97.7171666
41,41,418,A768535,,2018-03-21 11:42:00,03/21/2018 11:42:00 AM,Stray,Normal,Dog,Intact Male,4 days,Pit Bull Mix,Brown Brindle,834 Neans Drive,Austin ,TX,834 Neans Drive Austin  TX,30.3735411,-97.6928623
42,42,438,A769113,*Jack,2018-03-30 14:06:00,03/30/2018 02:06:00 PM,Stray,Injured,Cat,Intact Male,2 years,Domestic Shorthair Mix,Cream Tabby,10206 Parsons Road,Manor ,TX,10206 Parsons Road Manor  TX,30.296874,-97.509112
43,43,457,A342473,Sula,2018-07-22 14:12:00,07/22/2018 02:12:00 PM,Stray,Normal,Dog,Spayed Female,15 years,Miniature Poodle/Chihuahua Shorthair,Cream/White,Burnet And 183,Austin ,TX,Burnet And 183 Austin  TX,30.36994899999999,-97.727419
44,44,470,A776001,Max,2018-07-07 12:43:00,07/07/2018 12:43:00 PM,Stray,Normal,Dog,Neutered Male,16 years,Beagle,Brown/White,Hunters Chase Drive And Cahill Drive,Austin ,TX,Hunters Chase Drive And Cahill Drive Austin  TX,30.4459311,-97.76986430000001
45,45,471,A775659,,2018-07-03 12:02:00,07/03/2018 12:02:00 PM,Stray,Injured,Dog,Intact Male,2 years,Great Pyrenees Mix,White,10200 Catherine Dr,Travis ,TX,10200 Catherine Dr Travis  TX,30.2707697,-97.6198941
46,46,475,A776645,*Dandelion,2018-07-17 10:44:00,07/17/2018 10:44:00 AM,Stray,Normal,Dog,Intact Female,1 year,Labrador Retriever Mix,Fawn/White,10616 Mellow Mdws,Austin ,TX,10616 Mellow Mdws Austin  TX,30.46053749999999,-97.7997398
47,47,488,A773226,*Scooter,2018-05-29 13:26:00,05/29/2018 01:26:00 PM,Stray,Normal,Dog,Intact Female,2 days,Anatol Shepherd Mix,Black/Tan,13925 Rector Loop,Manor ,TX,13925 Rector Loop Manor  TX,30.3728386,-97.5585141
48,48,503,A775237,,2018-06-26 17:04:00,06/26/2018 05:04:00 PM,Stray,Normal,Cat,Intact Female,2 months,Domestic Shorthair Mix,Black/White,Piedras Blanco And Running Water Drive,Austin ,TX,Piedras Blanco And Running Water Drive Austin  TX,30.1613089,-97.7400842
49,49,511,A775234,,2018-06-26 16:49:00,06/26/2018 04:49:00 PM,Stray,Normal,Dog,Intact Male,7 months,Chihuahua Shorthair Mix,Black,4501 East Riverside Drive,Austin ,TX,4501 East Riverside Drive Austin  TX,30.231644,-97.7223999
50,50,523,A768845,,2018-03-26 11:47:00,03/26/2018 11:47:00 AM,Stray,Normal,Dog,Intact Female,6 months,Border Collie Mix,Black,Wells Branch Parkway And Dessau Road,Pflugerville ,TX,Wells Branch Parkway And Dessau Road Pflugerville  TX,30.4248264,-97.6262689
51,51,550,A779372,,2018-08-30 18:30:00,08/30/2018 06:30:00 PM,Stray,Normal,Cat,Intact Female,1 year,Domestic Shorthair Mix,Brown Tabby/White,7451 Onion Creek Drive,Austin ,TX,7451 Onion Creek Drive Austin  TX,30.170178,-97.75251399999999
52,52,569,A777706,*Molly,2018-08-01 18:48:00,08/01/2018 06:48:00 PM,Stray,Normal,Cat,Intact Female,1 year,Domestic Shorthair Mix,Blue,1314 William Barton Drive,Austin ,TX,1314 William Barton Drive Austin  TX,30.2642486,-97.7725419
53,53,576,A772538,*Ponch,2018-05-20 17:06:00,05/20/2018 05:06:00 PM,Stray,Normal,Cat,Intact Male,1 month,Domestic Shorthair Mix,Brown Tabby/White,12001 Metric Blvd,Austin ,TX,12001 Metric Blvd Austin  TX,30.401989,-97.70180599999999
54,54,582,A417737,Trixie,2018-03-04 15:53:00,03/04/2018 03:53:00 PM,Stray,Normal,Dog,Spayed Female,13 years,Chihuahua Longhair Mix,Tan/White,6910 Drexel Drive,Austin ,TX,6910 Drexel Drive Austin  TX,30.3184986,-97.67507110000001
55,55,583,A780134,,2018-09-10 12:07:00,09/10/2018 12:07:00 PM,Stray,Normal,Cat,Intact Female,2 weeks,Domestic Shorthair Mix,Calico,12812 Thomas Jefferson Street,Manor ,TX,12812 Thomas Jefferson Street Manor  TX,30.3547615,-97.5203457
56,56,588,A780879,Bear,2018-09-21 13:23:00,09/21/2018 01:23:00 PM,Stray,Normal,Dog,Neutered Male,2 years,Australian Cattle Dog/Labrador Retriever,Black/White,5501 Ed Bluestein Blvd,Austin ,TX,5501 Ed Bluestein Blvd Austin  TX,30.2945717,-97.6630842
57,57,596,A766156,,2018-02-03 11:02:00,02/03/2018 11:02:00 AM,Stray,Normal,Dog,Intact Female,4 months,German Shepherd Mix,Brown/Black,1820 Wooten Park,Austin ,TX,1820 Wooten Park Austin  TX,30.3545348,-97.7249748
58,58,600,A772626,*William,2018-05-21 19:01:00,05/21/2018 07:01:00 PM,Stray,Normal,Cat,Intact Male,4 weeks,Domestic Shorthair Mix,Orange Tabby,8017 Old Bee Caves Road,Austin ,TX,8017 Old Bee Caves Road Austin  TX,30.246265,-97.884321
59,59,604,A778803,*Baritone,2018-08-20 15:25:00,08/20/2018 03:25:00 PM,Stray,Normal,Cat,Intact Male,1 month,Domestic Shorthair Mix,White/Black,1203 Loma Drive,Austin ,TX,1203 Loma Drive Austin  TX,30.2439542,-97.7309131
60,60,609,A786285,*Helsinki,2018-12-21 12:07:00,12/21/2018 12:07:00 PM,Stray,Normal,Dog,Intact Female,2 years,Siberian Husky Mix,Gray/White,13300 Prarie Sage,Manor ,TX,13300 Prarie Sage Manor  TX,30.3387572,-97.52301089999999
61,61,611,A776410,*Cosmos,2018-07-13 11:54:00,07/13/2018 11:54:00 AM,Stray,Normal,Dog,Spayed Female,2 years,Labrador Retriever Mix,Black/White,Ballycastle,Austin ,TX,Ballycastle Austin  TX,30.49378,-97.7837921
62,62,613,A775280,Louise,2018-06-27 13:42:00,06/27/2018 01:42:00 PM,Stray,Normal,Dog,Intact Female,6 years,Miniature Poodle Mix,White,8228 Research Blvd,Austin ,TX,8228 Research Blvd Austin  TX,30.35539189999999,-97.71552589999999
63,63,615,A717108,Precious,2018-09-20 11:51:00,09/20/2018 11:51:00 AM,Stray,Normal,Dog,Spayed Female,9 years,Australian Kelpie/Beagle,Black/Tan,4200 South Ih 35 Frontage Road,Austin ,TX,4200 South Ih 35 Frontage Road Austin  TX,30.2148533,-97.75389059999999
64,64,622,A785183,*Ice,2018-11-28 09:06:00,11/28/2018 09:06:00 AM,Stray,Injured,Cat,Neutered Male,3 years,Domestic Shorthair Mix,Black,9703 Marlborough Dr,Austin ,TX,9703 Marlborough Dr Austin  TX,30.3555841,-97.6755194
65,65,646,A774222,Beans,2018-06-11 18:20:00,06/11/2018 06:20:00 PM,Stray,Normal,Cat,Intact Female,1 month,Domestic Medium Hair Mix,Black/White,1107 East Yager Lane,Austin ,TX,1107 East Yager Lane Austin  TX,30.389987,-97.6587179
66,66,653,A781610,,2018-10-02 13:11:00,10/02/2018 01:11:00 PM,Stray,Nursing,Cat,Intact Male,1 day,Domestic Shorthair Mix,Blue,5516 Spring Meadow Road,Austin ,TX,5516 Spring Meadow Road Austin  TX,30.1955186,-97.7334283
67,67,669,A765468,Skye,2018-12-12 12:33:00,12/12/2018 12:33:00 PM,Stray,Normal,Dog,Intact Female,1 year,Siberian Husky Mix,White,14512 Harris Ridge Blvd,Travis ,TX,14512 Harris Ridge Blvd Travis  TX,30.4221659,-97.64480669999999
68,68,672,A777862,Hank,2018-08-04 14:43:00,08/04/2018 02:43:00 PM,Stray,Normal,Dog,Intact Male,3 months,Labrador Retriever Mix,Red/White,3606 Goodwin Avenue,Austin ,TX,3606 Goodwin Avenue Austin  TX,30.2684119,-97.6971933
69,69,675,A780000,*Link,2018-09-08 11:56:00,09/08/2018 11:56:00 AM,Stray,Normal,Dog,Intact Male,1 year,Staffordshire Mix,Brown/White,Braker And Ih 35,Austin ,TX,Braker And Ih 35 Austin  TX,30.3777146,-97.6763672
70,70,680,A783714,Thatcher,2018-11-05 10:25:00,11/05/2018 10:25:00 AM,Stray,Normal,Dog,Intact Male,8 months,Great Pyrenees Mix,White,2305 Park Lane,Webberville ,TX,2305 Park Lane Webberville  TX,30.2206383,-97.4880838
71,71,705,A774183,Mr Butterbal,2018-06-11 12:38:00,06/11/2018 12:38:00 PM,Stray,Injured,Dog,Unknown,4 months,Pomeranian Mix,Red,6700 Galindo,Austin ,TX,6700 Galindo Austin  TX,30.22888529999999,-97.6962126
72,72,707,A725872,Lova,2018-02-01 12:16:00,02/01/2018 12:16:00 PM,Stray,Normal,Dog,Intact Female,1 year,German Shepherd,Tan/Black,Georgian Drive And Rundberg,Austin ,TX,Georgian Drive And Rundberg Austin  TX,30.3608038,-97.69344339999999
73,73,708,A765609,*Will,2018-01-23 13:25:00,01/23/2018 01:25:00 PM,Stray,Injured,Dog,Intact Male,3 years,Australian Cattle Dog Mix,Blue Tick,11101 Decker Lake Rd,Austin ,TX,11101 Decker Lake Rd Austin  TX,30.2770216,-97.60502579999999
74,74,727,A769199,Sophia,2018-04-01 11:37:00,04/01/2018 11:37:00 AM,Stray,Normal,Dog,Intact Female,2 years,Dachshund Mix,Black/Tan,1430 Frontier Valley Trail,Austin ,TX,1430 Frontier Valley Trail Austin  TX,30.227456,-97.692371
75,75,737,A781670,,2018-10-03 15:49:00,10/03/2018 03:49:00 PM,Stray,Normal,Cat,Intact Female,1 year,Domestic Shorthair Mix,Brown Tabby,2930 Ellon Road,Del Valle ,TX,2930 Ellon Road Del Valle  TX,30.206845,-97.64091599999999
76,76,759,A781677,Izzie,2018-10-03 16:10:00,10/03/2018 04:10:00 PM,Stray,Normal,Dog,Spayed Female,10 years,Cavalier Span Mix,Tricolor/Black,508 West Odell Street,Austin ,TX,508 West Odell Street Austin  TX,30.338499,-97.71326380000001
77,77,772,A773204,,2018-05-29 11:45:00,05/29/2018 11:45:00 AM,Stray,Normal,Cat,Intact Male,4 weeks,Domestic Shorthair Mix,Brown Tabby/White,2320 East Riverside Drive,Austin ,TX,2320 East Riverside Drive Austin  TX,30.237615,-97.7252275
78,78,790,A769175,,2018-03-31 17:01:00,03/31/2018 05:01:00 PM,Stray,Normal,Dog,Spayed Female,2 years,Chihuahua Shorthair Mix,White,Davis And Brodie,Austin ,TX,Davis And Brodie Austin  TX,30.1953013,-97.8423747
79,79,794,A765184,Harley,2018-01-14 15:11:00,01/14/2018 03:11:00 PM,Stray,Normal,Dog,Neutered Male,7 years,Australian Cattle Dog Mix,Blue Merle,Adelphi Lane And Ganymede Drive,Austin ,TX,Adelphi Lane And Ganymede Drive Austin  TX,30.4270154,-97.7237971
80,80,806,A782827,,2018-10-21 14:35:00,10/21/2018 02:35:00 PM,Stray,Normal,Dog,Intact Male,2 years,Chihuahua Shorthair Mix,Tan,2803 Loyola Lane,Austin ,TX,2803 Loyola Lane Austin  TX,30.314155,-97.6735267
81,81,809,A781981,*Zap,2018-10-09 10:15:00,10/09/2018 10:15:00 AM,Stray,Normal,Dog,Neutered Male,2 years,Border Collie Mix,Red,719 West William Cannon,Austin ,TX,719 West William Cannon Austin  TX,30.196601,-97.78868899999999
82,82,814,A768838,Luna,2018-03-26 10:54:00,03/26/2018 10:54:00 AM,Stray,Normal,Dog,Intact Female,1 year,Dachshund Mix,Brown,9909  Manchaca Road,Austin ,TX,9909  Manchaca Road Austin  TX,30.173227,-97.8231898
83,83,839,A784752,,2018-11-19 16:59:00,11/19/2018 04:59:00 PM,Stray,Normal,Cat,Unknown,1 year,Domestic Shorthair Mix,Black,3154 East Highway 71,Del Valle ,TX,3154 East Highway 71 Del Valle  TX,30.2022401,-97.64257470000001
84,84,842,A770651,Butters,2018-04-23 12:06:00,04/23/2018 12:06:00 PM,Stray,Normal,Dog,Neutered Male,5 years,Labrador Retriever/Australian Cattle Dog,Cream,3800 South Second Street,Austin ,TX,3800 South Second Street Austin  TX,30.2295173,-97.7718943
85,85,851,A785438,Sweetie,2018-12-03 12:20:00,12/03/2018 12:20:00 PM,Stray,Normal,Cat,Spayed Female,1 year,Domestic Shorthair Mix,Torbie,8207 Canoga Avenue,Austin ,TX,8207 Canoga Avenue Austin  TX,30.283982,-97.6360614
86,86,857,A776327,,2018-07-11 17:22:00,07/11/2018 05:22:00 PM,Stray,Normal,Cat,Unknown,2 weeks,Domestic Shorthair Mix,Brown Tabby,2412 Kramer Lane,Austin ,TX,2412 Kramer Lane Austin  TX,30.3961844,-97.71441030000001
87,87,860,A783774,*Kristoph,2018-11-06 09:29:00,11/06/2018 09:29:00 AM,Stray,Normal,Dog,Intact Male,5 months,Labrador Retriever/Border Collie,Black/White,255 Us 183 S,Austin ,TX,255 Us 183 S Austin  TX,30.241789,-97.6889831
88,88,861,A776209,,2018-07-10 11:36:00,07/10/2018 11:36:00 AM,Stray,Normal,Cat,Intact Male,4 months,Domestic Shorthair Mix,Cream Tabby,Alameda Drive And East Monroe Street,Austin ,TX,Alameda Drive And East Monroe Street Austin  TX,30.2455198,-97.74359609999999
89,89,862,A776722,*Pearl,2018-07-18 10:19:00,07/18/2018 10:19:00 AM,Stray,Nursing,Dog,Intact Female,2 years,Labrador Retriever,Yellow,9808 Sunflower Drive,Austin ,TX,9808 Sunflower Drive Austin  TX,30.1071054,-97.6788019
90,90,864,A774104,*Jade,2018-06-10 13:18:00,06/10/2018 01:18:00 PM,Stray,Normal,Cat,Intact Female,4 weeks,Domestic Shorthair Mix,Brown Tabby,2003 Man O War,Del Valle ,TX,2003 Man O War Del Valle  TX,30.2179695,-97.52237629999999
91,91,892,A777915,Gale,2018-08-05 13:40:00,08/05/2018 01:40:00 PM,Stray,Normal,Dog,Intact Male,4 years,German Shepherd Mix,White,11701 Big Trail,Austin ,TX,11701 Big Trail Austin  TX,30.4133182,-97.7379358
92,92,905,A670497,Rock,2018-10-11 17:54:00,10/11/2018 05:54:00 PM,Stray,Normal,Dog,Neutered Male,6 years,Pit Bull Mix,White/Brown Brindle,12148 Jollyville,Austin ,TX,12148 Jollyville Austin  TX,30.4290467,-97.76436050000001
93,93,906,A766540,*Hercules,2018-02-11 12:36:00,02/11/2018 12:36:00 PM,Stray,Normal,Dog,Intact Male,1 year,Pit Bull Mix,Fawn/White,2800 Metcalfe Road,Austin ,TX,2800 Metcalfe Road Austin  TX,30.2242083,-97.7379358
94,94,907,A777838,,2018-08-04 11:53:00,08/04/2018 11:53:00 AM,Stray,Normal,Cat,Intact Female,1 month,Domestic Shorthair Mix,White/Blue,8Th Street And Congress Avenue,Austin ,TX,8Th Street And Congress Avenue Austin  TX,30.2699197,-97.7421066
95,95,909,A766412,,2018-02-08 13:54:00,02/08/2018 01:54:00 PM,Stray,Normal,Dog,Intact Female,3 weeks,Labrador Retriever Mix,Tan/Black,7631 Us Highway 290 West,Austin ,TX,7631 Us Highway 290 West Austin  TX,30.22775579999999,-97.8821007
96,96,929,A780204,,2018-09-11 11:50:00,09/11/2018 11:50:00 AM,Stray,Normal,Dog,Intact Male,6 months,Labrador Retriever Mix,Black/White,3411 Amalfi Cove,Austin ,TX,3411 Amalfi Cove Austin  TX,30.4197824,-97.7137728
97,97,933,A784666,,2018-11-18 14:51:00,11/18/2018 02:51:00 PM,Stray,Normal,Cat,Intact Female,1 month,Domestic Shorthair Mix,Torbie,2036 Nestlewood Drive,Austin ,TX,2036 Nestlewood Drive Austin  TX,30.368451,-97.6538149
98,98,935,A784906,Petunia,2018-11-21 16:48:00,11/21/2018 04:48:00 PM,Stray,Normal,Dog,Intact Female,1 year,Chihuahua Shorthair Mix,Red/White,North Interstate 35  Service Road And East Powell Lane,Austin ,TX,North Interstate 35  Service Road And East Powell Lane Austin  TX,30.3747519,-97.6764406
99,99,958,A773307,Bella,2018-05-30 12:01:00,05/30/2018 12:01:00 PM,Stray,Normal,Dog,Spayed Female,12 years,Treeing Walker Coonhound/German Shorthair Pointer,Brown,Beckett Road And Davis Lane,Austin ,TX,Beckett Road And Davis Lane Austin  TX,30.2078274,-97.8694261
100,100,960,A786311,*Leo,2018-12-21 17:09:00,12/21/2018 05:09:00 PM,Stray,Normal,Cat,Intact Male,1 year,Domestic Longhair Mix,Brown Tabby/White,6029 Blue Bluff Road,Austin ,TX,6029 Blue Bluff Road Austin  TX,30.277483,-97.61159599999999
101,101,966,A769908,Gucci,2018-04-12 12:23:00,04/12/2018 12:23:00 PM,Stray,Normal,Dog,Intact Male,3 years,Yorkshire Terrier Mix,Brown/Gray,South Ih 35 Frontage Road And East Cesar Chavez Street,Austin ,TX,South Ih 35 Frontage Road And East Cesar Chavez Street Austin  TX,30.2612203,-97.7367715
102,102,972,A767684,Tramp,2018-03-05 14:26:00,03/05/2018 02:26:00 PM,Stray,Normal,Dog,Neutered Male,4 years,Keeshond/Finnish Spitz,Red,8Th And Concho,Austin ,TX,8Th And Concho Austin  TX,30.2644859,-97.72471929999999
103,103,974,A770990,*Mckenzie,2018-04-28 13:38:00,04/28/2018 01:38:00 PM,Stray,Normal,Dog,Intact Female,1 year,Staffordshire Mix,Brown Brindle/White,11111 Renel Drive,Austin ,TX,11111 Renel Drive Austin  TX,30.3838311,-97.69519480000001
104,104,975,A768481,,2018-03-20 11:48:00,03/20/2018 11:48:00 AM,Stray,Normal,Cat,Unknown,2 years,Domestic Shorthair Mix,Cream,4509 East St Elmo Road,Austin ,TX,4509 East St Elmo Road Austin  TX,30.2051583,-97.73806309999999
105,105,991,A781514,*Fozzy,2018-09-30 16:46:00,09/30/2018 04:46:00 PM,Stray,Normal,Cat,Intact Male,5 years,Domestic Longhair Mix,Blue Tabby,515 East Slaughter Lane,Austin ,TX,515 East Slaughter Lane Austin  TX,30.1626911,-97.7798936
106,106,993,A784131,*Lea,2018-11-12 12:26:00,11/12/2018 12:26:00 PM,Stray,Normal,Cat,Intact Female,11 months,Domestic Shorthair Mix,Blue,10810 N Lamar Boulevard,Austin ,TX,10810 N Lamar Boulevard Austin  TX,30.3771976,-97.6894476
107,107,1004,A775669,,2018-07-03 12:23:00,07/03/2018 12:23:00 PM,Stray,Normal,Cat,Intact Female,1 month,Domestic Shorthair Mix,Gray Tabby,13817 Klaus Lane,Travis ,TX,13817 Klaus Lane Travis  TX,30.36198,-97.428517
108,108,1007,A771087,,2018-04-30 12:48:00,04/30/2018 12:48:00 PM,Stray,Normal,Cat,Intact Female,1 year,Domestic Shorthair Mix,Calico,3601 Country White Lane,Austin ,TX,3601 Country White Lane Austin  TX,30.2212852,-97.8274258
109,109,1019,A774399,*Gordy,2018-09-07 15:12:00,09/07/2018 03:12:00 PM,Stray,Normal,Cat,Neutered Male,4 months,Domestic Shorthair Mix,Orange Tabby,Georgian Drive,Austin ,TX,Georgian Drive Austin  TX,30.360886,-97.69337469999999
110,110,1021,A783802,*Pearl,2018-11-06 15:56:00,11/06/2018 03:56:00 PM,Stray,Normal,Dog,Intact Female,1 month,Beagle Mix,Tan/Tricolor,East Martin Luther King Boulevard And Springdale Road,Austin ,TX,East Martin Luther King Boulevard And Springdale Road Austin  TX,30.28583459999999,-97.6826564
111,111,1024,A775560,*Tanner,2018-07-01 18:25:00,07/01/2018 06:25:00 PM,Stray,Normal,Dog,Intact Male,4 months,Labrador Retriever Mix,Black/Tricolor,7104 Berkman Drive,Austin ,TX,7104 Berkman Drive Austin  TX,30.32339279999999,-97.687028
112,112,1042,A768263,Bubba,2018-03-15 19:45:00,03/15/2018 07:45:00 PM,Stray,Normal,Dog,Intact Male,2 years,Pit Bull Mix,White/Black,4604 Parkdale Pl,Austin ,TX,4604 Parkdale Pl Austin  TX,30.2227119,-97.786223
113,113,1047,A776129,*Mary,2018-07-09 12:20:00,07/09/2018 12:20:00 PM,Stray,Normal,Dog,Intact Female,4 years,Australian Cattle Dog Mix,Blue Merle,Ross Road And Highway 71,Austin ,TX,Ross Road And Highway 71 Austin  TX,30.1862016,-97.60952619999999
114,114,1059,A771029,*Perseus,2018-04-29 12:12:00,04/29/2018 12:12:00 PM,Stray,Normal,Dog,Intact Male,2 months,Labrador Retriever/Great Pyrenees,Cream,9401 Us Highway 183 South,Austin ,TX,9401 Us Highway 183 South Austin  TX,30.1145465,-97.69449
115,115,1072,A776283,*Basil,2018-07-11 12:03:00,07/11/2018 12:03:00 PM,Stray,Normal,Dog,Intact Male,2 months,Australian Cattle Dog Mix,White/Brown,9401 Highway 183 South,Austin ,TX,9401 Highway 183 South Austin  TX,30.1148408,-97.69452199999999
116,116,1094,A770881,Rocky,2018-04-26 16:47:00,04/26/2018 04:47:00 PM,Stray,Normal,Dog,Intact Male,4 months,German Shepherd Mix,Brown/Black,Slaughter Lane And Manchaca Road,Austin ,TX,Slaughter Lane And Manchaca Road Austin  TX,30.1736392,-97.8238312
117,117,1103,A772595,Chloe,2018-05-21 14:08:00,05/21/2018 02:08:00 PM,Stray,Normal,Dog,Intact Female,1 year,Pit Bull Mix,Brown Brindle,5400 Freidrich Lane,Austin ,TX,5400 Freidrich Lane Austin  TX,30.2000489,-97.75682719999999
118,118,1106,A772952,Jolene,2018-05-25 12:29:00,05/25/2018 12:29:00 PM,Stray,Normal,Dog,Intact Female,3 months,Border Collie Mix,Blue Merle/White,Airport And Oaksprings,Austin ,TX,Airport And Oaksprings Austin  TX,30.2736074,-97.69792489999999
119,119,1117,A769546,,2018-04-06 11:54:00,04/06/2018 11:54:00 AM,Stray,Normal,Cat,Intact Male,10 years,Domestic Shorthair Mix,Brown Tabby/White,2509 East 11Th Street,Austin ,TX,2509 East 11Th Street Austin  TX,30.2664039,-97.71483339999999
120,120,1118,A765814,*Mercury,2018-04-05 13:49:00,04/05/2018 01:49:00 PM,Stray,Normal,Dog,Neutered Male,1 year,Black/Tan Hound/Beagle,Black/Brown,11441 S Ih 35 Frontage Rd,Austin ,TX,11441 S Ih 35 Frontage Rd Austin  TX,30.1528161,-97.7920282
121,121,1119,A780809,,2018-09-20 13:50:00,09/20/2018 01:50:00 PM,Stray,Normal,Cat,Intact Male,1 month,Domestic Shorthair Mix,Brown Tabby,9024 Northgate Boulevard,Austin ,TX,9024 Northgate Boulevard Austin  TX,30.3700305,-97.71737449999999
122,122,1122,A777183,*I Am Groot,2018-07-24 15:25:00,07/24/2018 03:25:00 PM,Stray,Normal,Cat,Intact Male,1 month,Domestic Shorthair Mix,Orange Tabby,1820 Adina,Austin ,TX,1820 Adina Austin  TX,30.2837656,-97.67933529999999
123,123,1128,A764807,Athena,2018-01-06 15:49:00,01/06/2018 03:49:00 PM,Stray,Normal,Dog,Intact Female,2 months,Labrador Retriever/Weimaraner,Buff,2435 Oak Crest Avenue,Austin ,TX,2435 Oak Crest Avenue Austin  TX,30.2420267,-97.76245970000001
124,124,1153,A774921,,2018-06-21 22:36:00,06/21/2018 10:36:00 PM,Stray,Sick,Cat,Unknown,2 weeks,Domestic Shorthair Mix,Brown/White,1711 Ledgewood Drive,Austin ,TX,1711 Ledgewood Drive Austin  TX,30.3761825,-97.7102944
125,125,1156,A771201,,2018-05-01 18:32:00,05/01/2018 06:32:00 PM,Stray,Normal,Cat,Unknown,3 months,Domestic Medium Hair Mix,Black,14300 Tandem Boulevard,Austin ,TX,14300 Tandem Boulevard Austin  TX,30.443138,-97.694103
126,126,1160,A764556,Cash,2018-01-01 14:54:00,01/01/2018 02:54:00 PM,Stray,Normal,Dog,Intact Male,6 years,Labrador Retriever Mix,Black,4124 Valley View Road,Austin ,TX,4124 Valley View Road Austin  TX,30.2309081,-97.78550109999999
127,127,1172,A761942,Sassy,2018-04-21 11:48:00,04/21/2018 11:48:00 AM,Stray,Normal,Cat,Spayed Female,3 years,Domestic Shorthair Mix,Calico/White,117701 Big Trail,Austin ,TX,117701 Big Trail Austin  TX,30.4134211,-97.739342
128,128,1182,A770271,*Emma,2018-04-17 12:16:00,04/17/2018 12:16:00 PM,Stray,Normal,Cat,Spayed Female,7 years,Domestic Shorthair Mix,Tortie,1300 Kirkwood Road,Austin ,TX,1300 Kirkwood Road Austin  TX,30.2960031,-97.71622269999999
129,129,1186,A783212,,2018-10-27 11:03:00,10/27/2018 11:03:00 AM,Stray,Normal,Dog,Intact Female,3 weeks,Chinese Sharpei Mix,White/Brown,6102 Kidneywood Trl,Austin ,TX,6102 Kidneywood Trl Austin  TX,30.250307,-97.88352100000002
130,130,1203,A782020,*Fred,2018-10-09 16:19:00,10/09/2018 04:19:00 PM,Stray,Normal,Dog,Intact Male,6 months,Pit Bull Mix,White/Black,183 And Metropolis,Austin ,TX,183 And Metropolis Austin  TX,30.2098716,-97.68316779999999
131,131,1220,A778181,,2018-08-08 08:38:00,08/08/2018 08:38:00 AM,Stray,Normal,Dog,Intact Male,1 month,Australian Cattle Dog Mix,Brown,11707 Schriber Road,Travis ,TX,11707 Schriber Road Travis  TX,30.0718101,-97.6773781
132,132,1226,A784322,Lucy,2018-11-14 11:47:00,11/14/2018 11:47:00 AM,Stray,Normal,Dog,Intact Female,1 year,Labrador Retriever Mix,Black/White,Cameron Road And Ferguson Lane,Austin ,TX,Cameron Road And Ferguson Lane Austin  TX,30.3458232,-97.67756949999999
133,133,1233,A786039,,2018-12-15 11:58:00,12/15/2018 11:58:00 AM,Stray,Normal,Dog,Intact Male,2 months,Labrador Retriever Mix,Black/White,1109 Valdez,Austin ,TX,1109 Valdez Austin  TX,30.2303864,-97.6950676
134,134,1236,A782188,Chili,2018-10-11 14:52:00,10/11/2018 02:52:00 PM,Stray,Normal,Cat,Spayed Female,5 years,Domestic Shorthair Mix,Torbie,4200 Brookview Road,Austin ,TX,4200 Brookview Road Austin  TX,30.2962587,-97.7102938
135,135,1239,A768352,Quincy,2018-03-17 14:55:00,03/17/2018 02:55:00 PM,Stray,Normal,Dog,Intact Female,2 years,Miniature Poodle Mix,White,8220 West Highway 71,Austin ,TX,8220 West Highway 71 Austin  TX,30.2475924,-97.8863259
136,136,1248,A782517,,2018-10-16 18:33:00,10/16/2018 06:33:00 PM,Stray,Normal,Cat,Intact Male,3 months,Domestic Shorthair Mix,Orange Tabby,9200 North Plaza,Austin ,TX,9200 North Plaza Austin  TX,30.3544049,-97.6860561
137,137,1252,A771488,Tuna,2018-05-05 16:24:00,05/05/2018 04:24:00 PM,Stray,Normal,Dog,Intact Female,1 month,Labrador Retriever Mix,Brown,124 West Anderson Lane,Austin ,TX,124 West Anderson Lane Austin  TX,30.3446809,-97.70522550000001
138,138,1253,A776053,,2018-07-08 11:50:00,07/08/2018 11:50:00 AM,Stray,Normal,Cat,Intact Male,2 months,Domestic Shorthair Mix,Black,2600 Highland Haven Drive,Austin ,TX,2600 Highland Haven Drive Austin  TX,30.2600634,-97.6695415
139,139,1257,A783637,*Lizzy,2018-11-03 12:49:00,11/03/2018 12:49:00 PM,Stray,Normal,Cat,Intact Female,1 month,Domestic Shorthair Mix,Tortie,7929 South Hiway 183,Austin ,TX,7929 South Hiway 183 Austin  TX,30.1421379,-97.6966028
140,140,1266,A778480,,2018-08-15 12:39:00,08/15/2018 12:39:00 PM,Stray,Normal,Cat,Intact Male,3 days,Domestic Shorthair Mix,Brown Tabby,505 East Hulet Drive,Austin ,TX,505 East Hulet Drive Austin  TX,30.33063139999999,-97.70870389999999
141,141,1268,A765723,*Aubrey,2018-01-25 13:43:00,01/25/2018 01:43:00 PM,Stray,Normal,Cat,Intact Female,1 year,Domestic Shorthair Mix,Black,1311 Fairbanks Unit B,Austin ,TX,1311 Fairbanks Unit B Austin  TX,30.3276633,-97.69165369999999
142,142,1269,A780008,*Peedee,2018-09-08 14:22:00,09/08/2018 02:22:00 PM,Stray,Normal,Dog,Intact Male,1 year,Labrador Retriever Mix,White/Tan,12118 Walnut Park Crossing,Austin ,TX,12118 Walnut Park Crossing Austin  TX,30.3935615,-97.6769525
143,143,1282,A784895,Cyrus The Gr,2018-11-21 14:57:00,11/21/2018 02:57:00 PM,Stray,Normal,Dog,Neutered Male,1 year,Chihuahua Shorthair Mix,Black/White,Westgate And William Cannon,Austin ,TX,Westgate And William Cannon Austin  TX,30.2071514,-97.81551209999999
144,144,1287,A774186,,2018-06-11 13:09:00,06/11/2018 01:09:00 PM,Stray,Normal,Cat,Unknown,2 weeks,Domestic Shorthair Mix,Orange Tabby,1700 Red Fox Road,Lakeway ,TX,1700 Red Fox Road Lakeway  TX,30.3727788,-97.9291758
145,145,1290,A770144,,2018-04-15 16:18:00,04/15/2018 04:18:00 PM,Stray,Normal,Cat,Intact Male,1 year,Domestic Longhair Mix,Brown Tabby,400 West Saint Elmo Road,Austin ,TX,400 West Saint Elmo Road Austin  TX,30.2209078,-97.7702365
146,146,1297,A779972,,2018-09-07 15:34:00,09/07/2018 03:34:00 PM,Stray,Normal,Dog,Unknown,2 years,Australian Cattle Dog Mix,Black/White,11701 Metric,Austin ,TX,11701 Metric Austin  TX,30.3966223,-97.70478910000001
147,147,1302,A763119,Sparky,2018-04-23 12:40:00,04/23/2018 12:40:00 PM,Stray,Normal,Dog,Neutered Male,5 years,Jack Russell Terrier,White/Tan,7600 Tisdale Road,Austin ,TX,7600 Tisdale Road Austin  TX,30.3475374,-97.7216636
148,148,1312,A778096,,2018-08-08 14:29:00,08/08/2018 02:29:00 PM,Stray,Normal,Cat,Intact Female,4 weeks,Domestic Medium Hair Mix,Calico,Well Branch Parkway And South Heatherwilde Boulevard,Pflugerville ,TX,Well Branch Parkway And South Heatherwilde Boulevard Pflugerville  TX,30.4326329,-97.6527658
149,149,1323,A768559,Dakota,2018-03-21 15:01:00,03/21/2018 03:01:00 PM,Stray,Normal,Dog,Intact Female,6 years,Siberian Husky Mix,Black/White,7813 Marble Ridge Drive,Austin ,TX,7813 Marble Ridge Drive Austin  TX,30.1581797,-97.7363445
150,150,1337,A784699,Brady,2018-11-19 11:35:00,11/19/2018 11:35:00 AM,Stray,Normal,Dog,Intact Male,8 years,Chihuahua Shorthair Mix,Tan/White,14013 Briar Creek Loop,Manor ,TX,14013 Briar Creek Loop Manor  TX,30.3120761,-97.5329534
151,151,1347,A601877,Bella,2018-03-25 16:08:00,03/25/2018 04:08:00 PM,Stray,Normal,Dog,Spayed Female,10 years,Mastiff Mix,Brown/Black,18020 Misty Harbor,Travis ,TX,18020 Misty Harbor Travis  TX,30.4460709,-97.57362640000001
152,152,1362,A780670,*Stormy,2018-09-18 16:50:00,09/18/2018 04:50:00 PM,Stray,Normal,Cat,Intact Female,1 month,Domestic Shorthair Mix,Blue,12508 Esplanade Drive,Austin ,TX,12508 Esplanade Drive Austin  TX,30.4185351,-97.6921893
153,153,1363,A769719,Violet,2018-04-19 15:42:00,04/19/2018 03:42:00 PM,Stray,Normal,Dog,Intact Female,7 months,Pit Bull Mix,Brown/White,Silcantu Drive And Sweeetwater River Drive,Austin ,TX,Silcantu Drive And Sweeetwater River Drive Austin  TX,30.1625351,-97.81490889999999
154,154,1364,A771131,,2018-04-30 19:18:00,04/30/2018 07:18:00 PM,Stray,Nursing,Dog,Intact Female,6 days,Pit Bull Mix,Black/White,1501 S 973,Austin ,TX,1501 S 973 Austin  TX,30.2221408,-97.6339381
155,155,1371,A773136,Nigel,2018-05-28 12:38:00,05/28/2018 12:38:00 PM,Stray,Normal,Cat,Intact Male,1 month,Domestic Shorthair Mix,Orange Tabby,6201 Sneed Cove,Austin ,TX,6201 Sneed Cove Austin  TX,30.1937135,-97.763666
156,156,1372,A773629,Toto,2018-06-03 15:03:00,06/03/2018 03:03:00 PM,Stray,Normal,Dog,Intact Male,7 months,Yorkshire Terrier Mix,Black/Brown,1711 Rutland Dr,Austin ,TX,1711 Rutland Dr Austin  TX,30.37507799999999,-97.71238699999999
157,157,1393,A769657,,2018-04-08 12:29:00,04/08/2018 12:29:00 PM,Stray,Normal,Dog,Intact Male,1 year,Chihuahua Shorthair/Cardigan Welsh Corgi,White/Tan,Metric Boulevard And Braker Lane,Austin ,TX,Metric Boulevard And Braker Lane Austin  TX,30.3922447,-97.708253
158,158,1394,A771898,Ellie,2018-05-11 17:05:00,05/11/2018 05:05:00 PM,Stray,Normal,Dog,Intact Female,1 year,Australian Shepherd Mix,Black/Brown,Dessau Road And Shropshire,Austin ,TX,Dessau Road And Shropshire Austin  TX,30.3773499,-97.65870509999999
159,159,1398,A780273,,2018-09-12 12:45:00,09/12/2018 12:45:00 PM,Stray,Normal,Cat,Intact Female,1 weeks,Domestic Shorthair Mix,Tortie,1202 Lily Terrace,Austin ,TX,1202 Lily Terrace Austin  TX,30.2335496,-97.70279719999999
160,160,1403,A777215,Lady,2018-07-25 12:02:00,07/25/2018 12:02:00 PM,Stray,Normal,Dog,Intact Female,1 year,Chihuahua Shorthair/Labrador Retriever,Tan,9032 Galewood Drive,Austin ,TX,9032 Galewood Drive Austin  TX,30.3683307,-97.714998
161,161,1405,A764632,,2018-01-03 09:11:00,01/03/2018 09:11:00 AM,Stray,Injured,Cat,Intact Female,1 year,Domestic Shorthair Mix,Black/White,Whelness Cv And Whelness Dr,Austin ,TX,Whelness Cv And Whelness Dr Austin  TX,30.3096642,-97.6801674
162,162,1426,A766494,Blaze,2018-02-10 13:17:00,02/10/2018 01:17:00 PM,Stray,Normal,Cat,Intact Male,7 months,Domestic Shorthair Mix,Orange Tabby,12219 Lime Creek Road,Travis ,TX,12219 Lime Creek Road Travis  TX,30.4832228,-97.8708678
163,163,1429,A769369,Jax,2018-04-04 12:03:00,04/04/2018 12:03:00 PM,Stray,Normal,Dog,Intact Male,9 months,Dachshund/Chihuahua Shorthair,Tan/White,12800 Harrisglenn Drive,Austin ,TX,12800 Harrisglenn Drive Austin  TX,30.400672,-97.65305
164,164,1460,A770916,Oso,2018-04-27 11:43:00,04/27/2018 11:43:00 AM,Stray,Normal,Dog,Intact Male,1 year,Great Pyrenees Mix,White/Cream,10195 Thistle Ridge,Austin ,TX,10195 Thistle Ridge Austin  TX,30.3317935,-97.880376
165,165,1468,A774316,,2018-06-13 14:13:00,06/13/2018 02:13:00 PM,Stray,Normal,Cat,Intact Male,1 month,Domestic Shorthair Mix,Black,4528 Credo Lane,Austin ,TX,4528 Credo Lane Austin  TX,30.2376232,-97.57165690000001
166,166,1471,A777446,*Waffle,2018-07-28 15:46:00,07/28/2018 03:46:00 PM,Stray,Normal,Cat,Intact Male,1 month,Domestic Shorthair Mix,Blue/White,25108 Lake View Drive,Travis ,TX,25108 Lake View Drive Travis  TX,30.428514,-98.0877646
167,167,1492,A781279,*Rocco,2018-09-26 16:43:00,09/26/2018 04:43:00 PM,Stray,Normal,Dog,Intact Male,2 years,Dachshund/Chihuahua Shorthair,Black/Brown,9608 Dallum Drive,Austin ,TX,9608 Dallum Drive Austin  TX,30.3593205,-97.6827698
168,168,1493,A742148,*Ruby,2018-11-05 11:01:00,11/05/2018 11:01:00 AM,Stray,Normal,Dog,Spayed Female,2 years,Pit Bull Mix,Brown/White,5803 Nuckols Crossing,Austin ,TX,5803 Nuckols Crossing Austin  TX,30.1876303,-97.7419673
169,169,1499,A779705,,2018-09-04 16:31:00,09/04/2018 04:31:00 PM,Stray,Normal,Dog,Intact Female,4 years,Miniature Schnauzer/Dachshund,Black/Tan,13903 Fm 812,Travis ,TX,13903 Fm 812 Travis  TX,30.120886,-97.6359732
170,170,1530,A768723,,2018-03-24 11:47:00,03/24/2018 11:47:00 AM,Stray,Normal,Cat,Neutered Male,2 years,Domestic Shorthair Mix,Brown Tabby,West Lynn And West 12Th Street,Austin ,TX,West Lynn And West 12Th Street Austin  TX,30.280226,-97.75912
171,171,1532,A775493,Baby,2018-07-01 07:38:00,07/01/2018 07:38:00 AM,Stray,Injured,Dog,Intact Female,5 years,Chihuahua Shorthair Mix,Tan/White,5709 Interstate Highway 35,Austin ,TX,5709 Interstate Highway 35 Austin  TX,33.2947795,-97.1779279
172,172,1543,A783050,Maverick,2018-10-24 15:42:00,10/24/2018 03:42:00 PM,Stray,Normal,Dog,Intact Male,1 year,Pit Bull Mix,Tan,4600 Mueller Boulevard,Austin ,TX,4600 Mueller Boulevard Austin  TX,30.2988854,-97.7079325
173,173,1546,A782386,,2018-10-14 13:36:00,10/14/2018 01:36:00 PM,Stray,Normal,Dog,Intact Female,1 month,Bloodhound Mix,Tan/Cream,Ashbury Street,Manor ,TX,Ashbury Street Manor  TX,30.5655233,-97.7468677
174,174,1561,A780013,*Hamilton,2018-09-08 14:33:00,09/08/2018 02:33:00 PM,Stray,Normal,Dog,Intact Male,3 years,Labrador Retriever Mix,Black/Brown Brindle,13020 Travis View Loop,Austin ,TX,13020 Travis View Loop Austin  TX,30.39117439999999,-97.8917627
175,175,1565,A764721,Xena,2018-01-05 07:06:00,01/05/2018 07:06:00 AM,Stray,Normal,Dog,Spayed Female,2 years,American Pit Bull Terrier Mix,Tan/White,1402 Meadowmear Dr,Austin ,TX,1402 Meadowmear Dr Austin  TX,30.3597846,-97.6718308
176,176,1574,A598832,Boogers,2018-05-02 14:01:00,05/02/2018 02:01:00 PM,Stray,Normal,Cat,Neutered Male,7 years,Domestic Shorthair,Gray Tabby/White,7200 Broken Arrow Lane,Austin ,TX,7200 Broken Arrow Lane Austin  TX,30.1880635,-97.78494909999999
177,177,1589,A776132,*Recyclops,2018-07-09 13:43:00,07/09/2018 01:43:00 PM,Stray,Normal,Cat,Intact Male,2 months,Domestic Shorthair Mix,Brown Tabby,933 East Runberg Lane,Austin ,TX,933 East Runberg Lane Austin  TX,30.3559612,-97.6851751
178,178,1592,A785022,Hunny,2018-11-25 14:31:00,11/25/2018 02:31:00 PM,Stray,Normal,Dog,Intact Female,1 year,Labrador Retriever Mix,Tan,1505 Melissa Oaks Lane,Austin ,TX,1505 Melissa Oaks Lane Austin  TX,30.1606594,-97.7838025
179,179,1602,A779998,Jack Jack,2018-09-08 11:20:00,09/08/2018 11:20:00 AM,Stray,Normal,Dog,Neutered Male,11 years,Cocker Spaniel,White/Black,Dittmar,Austin ,TX,Dittmar Austin  TX,30.1857007,-97.7992295
180,180,1608,A766119,,2018-02-02 11:21:00,02/02/2018 11:21:00 AM,Stray,Normal,Cat,Neutered Male,2 years,Domestic Shorthair Mix,Black/Black,15208 Fm 969,Austin ,TX,15208 Fm 969 Austin  TX,30.2489176,-97.57786019999999
181,181,1609,A766871,,2018-02-18 14:03:00,02/18/2018 02:03:00 PM,Stray,Normal,Cat,Unknown,2 years,Domestic Shorthair Mix,Brown Tabby/White,201 Little Walnut Drive,Austin ,TX,201 Little Walnut Drive Austin  TX,30.3528842,-97.6980045
182,182,1646,A767045,Scrappy,2018-02-21 18:31:00,02/21/2018 06:31:00 PM,Stray,Normal,Dog,Intact Male,1 year,Pit Bull Mix,Brown,Manchaca Road And West William Cannon Drive,Austin ,TX,Manchaca Road And West William Cannon Drive Austin  TX,30.202829,-97.80688339999999
183,183,1649,A747138,Sheeba,2018-02-15 13:27:00,02/15/2018 01:27:00 PM,Stray,Normal,Dog,Intact Female,2 years,American Pit Bull Terrier Mix,Black/White,14975 Swiss Dr,Del Valle ,TX,14975 Swiss Dr Del Valle  TX,30.1300508,-97.6173628
184,184,1671,A772729,*Uno,2018-05-22 19:01:00,05/22/2018 07:01:00 PM,Stray,Normal,Dog,Intact Male,1 month,Pit Bull/German Shepherd,Brown/Black,8504 Linden Loop,Austin ,TX,8504 Linden Loop Austin  TX,30.131083,-97.5942029
185,185,1684,A774709,Dudley,2018-06-19 10:23:00,06/19/2018 10:23:00 AM,Stray,Normal,Cat,Intact Male,2 weeks,Domestic Shorthair Mix,Orange Tabby/White,19429 Tayshas Street,Manor ,TX,19429 Tayshas Street Manor  TX,30.3523505,-97.510109
186,186,1686,A765170,,2018-01-14 11:12:00,01/14/2018 11:12:00 AM,Stray,Normal,Dog,Intact Male,4 years,Miniature Schnauzer Mix,Black/White,18805 Golden Eagle Way,Travis ,TX,18805 Golden Eagle Way Travis  TX,30.372583,-97.400458
187,187,1687,A778271,Shooter,2018-08-11 12:19:00,08/11/2018 12:19:00 PM,Stray,Normal,Dog,Intact Male,5 years,Labrador Retriever Mix,Black,2900 Manor Road,Austin ,TX,2900 Manor Road Austin  TX,30.28580969999999,-97.71038639999999
188,188,1688,A767870,Jermaine,2018-03-08 13:26:00,03/08/2018 01:26:00 PM,Stray,Injured,Cat,Neutered Male,6 years,Domestic Shorthair Mix,Brown Tabby/White,2312 Rachel Ct,Austin ,TX,2312 Rachel Ct Austin  TX,30.1778589,-97.8283606
189,189,1696,A770939,*Cream Puff,2018-04-27 12:46:00,04/27/2018 12:46:00 PM,Stray,Normal,Cat,Intact Male,3 weeks,Domestic Shorthair Mix,Cream Tabby,608 Genard Street,Austin ,TX,608 Genard Street Austin  TX,30.3197641,-97.72802779999999
190,190,1706,A746923,Blue,2018-11-19 14:53:00,11/19/2018 02:53:00 PM,Stray,Normal,Dog,Intact Male,3 years,Pit Bull Mix,Blue/White,Edwin Lane And Hergotz Lane,Austin ,TX,Edwin Lane And Hergotz Lane Austin  TX,30.2410986,-97.6664471
191,191,1708,A774991,*Timmy,2018-06-23 07:51:00,06/23/2018 07:51:00 AM,Stray,Normal,Dog,Intact Male,4 years,Chihuahua Shorthair Mix,White/Tan,9505 Arboretum Blvd,Austin ,TX,9505 Arboretum Blvd Austin  TX,30.3911071,-97.75145289999999
192,192,1712,A627787,Sparky,2018-03-22 14:42:00,03/22/2018 02:42:00 PM,Stray,Normal,Dog,Neutered Male,7 years,Rat Terrier Mix,White/Black,7008 Brook Valley Circle,Austin ,TX,7008 Brook Valley Circle Austin  TX,30.3081362,-97.65398449999999
193,193,1715,A768260,*Oliver,2018-03-15 18:45:00,03/15/2018 06:45:00 PM,Stray,Normal,Dog,Intact Male,4 years,Norfolk Terrier Mix,Tan,713 Camp Fire Trail,Pflugerville ,TX,713 Camp Fire Trail Pflugerville  TX,30.43697169999999,-97.63453249999999
194,194,1723,A767464,Kiara,2018-03-01 13:23:00,03/01/2018 01:23:00 PM,Stray,Normal,Dog,Intact Female,3 months,Pit Bull Mix,Fawn/White,15214 Sabel Palm,Travis ,TX,15214 Sabel Palm Travis  TX,30.2561004,-97.5768441
195,195,1725,A776899,*Boo Radley,2018-07-20 15:22:00,07/20/2018 03:22:00 PM,Stray,Nursing,Cat,Intact Male,3 weeks,Domestic Shorthair Mix,Brown Tabby/Silver,6807 Shadywood Dr,Austin ,TX,6807 Shadywood Dr Austin  TX,30.1933435,-97.7850764
196,196,1740,A775353,,2018-06-28 13:09:00,06/28/2018 01:09:00 PM,Stray,Normal,Dog,Intact Male,2 months,Great Pyrenees Mix,Fawn,9040 Elroy Road,Del Valle ,TX,9040 Elroy Road Del Valle  TX,30.1213961,-97.63491379999999
197,197,1741,A776052,,2018-07-08 11:50:00,07/08/2018 11:50:00 AM,Stray,Normal,Cat,Intact Female,2 months,Domestic Shorthair Mix,Brown Tabby,2600 Highland Haven Drive,Austin ,TX,2600 Highland Haven Drive Austin  TX,30.2600634,-97.6695415
198,198,1747,A767630,Vic-7,2018-03-04 15:30:00,03/04/2018 03:30:00 PM,Stray,Normal,Cat,Spayed Female,8 years,Domestic Shorthair Mix,Calico,2910 Gonzales Street,Austin ,TX,2910 Gonzales Street Austin  TX,30.2598713,-97.7078765
199,199,1758,A768657,*Dixie,2018-03-23 11:44:00,03/23/2018 11:44:00 AM,Stray,Normal,Dog,Intact Female,1 year,Norfolk Terrier Mix,Black,10520 North Lamar Boulevard,Austin ,TX,10520 North Lamar Boulevard Austin  TX,30.3751766,-97.6905511
200,200,1761,A777029,,2018-07-22 13:12:00,07/22/2018 01:12:00 PM,Stray,Normal,Cat,Intact Female,4 weeks,Domestic Shorthair Mix,Blue,7603 Uray Drive,Austin ,TX,7603 Uray Drive Austin  TX,30.315673,-97.653567
201,201,1763,A776360,,2018-07-12 12:54:00,07/12/2018 12:54:00 PM,Stray,Normal,Dog,Intact Female,4 months,German Shepherd Mix,Black/Tan,4808 Prock Lane,Austin ,TX,4808 Prock Lane Austin  TX,30.2696597,-97.6895937
202,202,1769,A777141,Spunky,2018-07-24 10:20:00,07/24/2018 10:20:00 AM,Stray,Normal,Dog,Intact Male,10 months,Dachshund/Beagle,Blue/Tricolor,12900 North Interstate 35 Service Road,Austin ,TX,12900 North Interstate 35 Service Road Austin  TX,30.4135638,-97.6764479
203,203,1776,A773839,,2018-06-06 12:01:00,06/06/2018 12:01:00 PM,Stray,Normal,Cat,Intact Female,1 year,Domestic Medium Hair Mix,Brown Tabby/White,2409 Town Lake Circle,Austin ,TX,2409 Town Lake Circle Austin  TX,30.2382653,-97.7233182
204,204,1779,A766414,,2018-02-08 13:54:00,02/08/2018 01:54:00 PM,Stray,Normal,Dog,Intact Male,3 weeks,Labrador Retriever Mix,Tan/White,7631 Us Highway 290 West,Austin ,TX,7631 Us Highway 290 West Austin  TX,30.22775579999999,-97.8821007
205,205,1783,A743414,Rexee,2018-04-30 11:41:00,04/30/2018 11:41:00 AM,Stray,Normal,Dog,Intact Male,9 years,Great Pyrenees/Chow Chow,Buff,43Rd And Duval,Austin ,TX,43Rd And Duval Austin  TX,30.3046335,-97.72611409999999
206,206,1789,A779006,Riggs,2018-08-24 10:42:00,08/24/2018 10:42:00 AM,Stray,Normal,Dog,Intact Male,2 years,English Bulldog,Brown Brindle/White,5525 Collinton Avenue,Austin ,TX,5525 Collinton Avenue Austin  TX,30.3736172,-97.61445049999999
207,207,1790,A778956,*Nick,2018-08-23 11:33:00,08/23/2018 11:33:00 AM,Stray,Injured,Cat,Intact Male,3 months,Domestic Shorthair Mix,Black,8605 Ganttcrest Drive,Austin ,TX,8605 Ganttcrest Drive Austin  TX,30.2097252,-97.8685675
208,208,1792,A770773,,2018-04-25 11:45:00,04/25/2018 11:45:00 AM,Stray,Normal,Cat,Unknown,1 year,Domestic Shorthair Mix,Black,10803 Topperwein Drive,Austin ,TX,10803 Topperwein Drive Austin  TX,30.3852068,-97.7058106
209,209,1794,A786232,,2018-12-19 17:52:00,12/19/2018 05:52:00 PM,Stray,Normal,Dog,Intact Male,2 years,Cocker Spaniel/Labrador Retriever,Gold/White,Wells Branch Parkway And South Heatherwilde Boulevard,Pflugerville ,TX,Wells Branch Parkway And South Heatherwilde Boulevard Pflugerville  TX,30.4326329,-97.6527658
210,210,1796,A781735,*Cliff,2018-10-04 15:35:00,10/04/2018 03:35:00 PM,Stray,Normal,Dog,Intact Male,1 year,Bloodhound Mix,Black/Tan,9708 Eastwend Drive,Austin ,TX,9708 Eastwend Drive Austin  TX,30.36535569999999,-97.69277749999999
211,211,1799,A782753,,2018-10-20 14:58:00,10/20/2018 02:58:00 PM,Stray,Normal,Dog,Intact Female,2 months,American Pit Bull Terrier Mix,Brown,18706 Blake Manor Rd,Manor ,TX,18706 Blake Manor Rd Manor  TX,30.2855664,-97.5216872
212,212,1825,A782976,,2018-10-23 15:33:00,10/23/2018 03:33:00 PM,Stray,Normal,Dog,Intact Female,2 years,Beagle Mix,Tricolor,513 Vargas,Austin ,TX,513 Vargas Austin  TX,30.2369831,-97.6913629
213,213,1832,A779628,,2018-09-03 18:45:00,09/03/2018 06:45:00 PM,Stray,Normal,Dog,Intact Male,6 months,Pembroke Welsh Corgi Mix,Tan/Black,4900 Freidrich Lane,Austin ,TX,4900 Freidrich Lane Austin  TX,30.2040215,-97.7534799
214,214,1837,A773982,,2018-06-08 13:16:00,06/08/2018 01:16:00 PM,Stray,Normal,Cat,Intact Male,3 weeks,Domestic Shorthair Mix,Gray Tabby/White,12151 North Interstate 35,Austin ,TX,12151 North Interstate 35 Austin  TX,30.39427,-97.67066849999999
215,215,1838,A783413,*Nugget,2018-10-30 13:54:00,10/30/2018 01:54:00 PM,Stray,Normal,Dog,Intact Female,1 year,Catahoula/Beagle,Red/White,Thompson Lane And South Us Highway 183,Austin ,TX,Thompson Lane And South Us Highway 183 Austin  TX,30.2413865,-97.6884882
216,216,1848,A783296,Brownie,2018-10-28 16:18:00,10/28/2018 04:18:00 PM,Stray,Normal,Dog,Neutered Male,9 years,Chihuahua Shorthair Mix,Tan,6105 Wideleaf,Austin ,TX,6105 Wideleaf Austin  TX,30.2587515,-97.5743885
217,217,1849,A767536,Storm,2018-03-03 10:27:00,03/03/2018 10:27:00 AM,Stray,Normal,Dog,Intact Female,1 year,German Shepherd Mix,Brown/Tan,Austin Colony Road And Hunters Bend,Austin ,TX,Austin Colony Road And Hunters Bend Austin  TX,30.2462466,-97.58265039999999
218,218,1860,A769672,*Cole,2018-04-08 14:23:00,04/08/2018 02:23:00 PM,Stray,Normal,Dog,Intact Male,1 year,Labrador Retriever,Tan,1156 Cesar Chavez,Austin ,TX,1156 Cesar Chavez Austin  TX,30.269764,-97.7591144
219,219,1865,A785708,,2018-12-08 13:20:00,12/08/2018 01:20:00 PM,Stray,Normal,Cat,Intact Female,4 weeks,Domestic Shorthair Mix,Orange Tabby,Manchaca Road And Matthews Lane,Austin ,TX,Manchaca Road And Matthews Lane Austin  TX,30.2000002,-97.80743419999999
220,220,1877,A778324,*Sammy,2018-08-12 14:10:00,08/12/2018 02:10:00 PM,Stray,Normal,Cat,Intact Male,1 month,Domestic Shorthair Mix,Orange Tabby,1606 Fortview Road,Austin ,TX,1606 Fortview Road Austin  TX,30.2292585,-97.7834841
221,221,1904,A767054,Loki,2018-02-22 11:11:00,02/22/2018 11:11:00 AM,Stray,Normal,Dog,Intact Male,1 year,Pit Bull Mix,Black/White,West Slaughter Lane And Manchaca Road,Austin ,TX,West Slaughter Lane And Manchaca Road Austin  TX,30.1736392,-97.8238312
222,222,1912,A588297,Abby,2018-03-26 14:36:00,03/26/2018 02:36:00 PM,Stray,Normal,Cat,Spayed Female,7 years,Domestic Shorthair Mix,Torbie,2200 Tabor Court,Austin ,TX,2200 Tabor Court Austin  TX,30.1762077,-97.826746
223,223,1918,A777378,,2018-07-27 18:54:00,07/27/2018 06:54:00 PM,Stray,Normal,Dog,Intact Female,2 months,Labrador Retriever Mix,Tan/White,Montopolis,Austin ,TX,Montopolis Austin  TX,30.2250561,-97.7033089
224,224,1921,A785047,Patty,2018-11-25 16:32:00,11/25/2018 04:32:00 PM,Stray,Normal,Dog,Intact Female,1 year,Pit Bull Mix,Brown/White,1100 West Cesar Chavez Street,Austin ,TX,1100 West Cesar Chavez Street Austin  TX,30.2689942,-97.756992
225,225,1922,A785765,Star Jimenez,2018-12-09 13:25:00,12/09/2018 01:25:00 PM,Stray,Normal,Dog,Intact Female,1 year,German Shepherd Mix,Tricolor,9901 Rodriguez Road,Austin ,TX,9901 Rodriguez Road Austin  TX,30.1152071,-97.70397419999999
226,226,1925,A783191,*Luke,2018-10-26 17:28:00,10/26/2018 05:28:00 PM,Stray,Normal,Cat,Intact Male,4 weeks,Domestic Shorthair Mix,Cream Tabby,9507 Parkfield,Austin ,TX,9507 Parkfield Austin  TX,30.369887,-97.7047377
227,227,1926,A784890,,2018-11-21 14:12:00,11/21/2018 02:12:00 PM,Stray,Normal,Cat,Intact Male,1 month,Domestic Shorthair Mix,Blue Tabby/White,8004 Cameron Road,Austin ,TX,8004 Cameron Road Austin  TX,30.3359989,-97.6861833
228,228,1929,A689828,Barbie,2018-02-06 18:03:00,02/06/2018 06:03:00 PM,Stray,Normal,Dog,Spayed Female,5 years,American Staffordshire Terrier Mix,Blue/White,140000 Renaissance Court,Austin ,TX,140000 Renaissance Court Austin  TX,30.43668809999999,-97.68475219999999
229,229,1947,A769091,Manhattan,2018-09-14 17:55:00,09/14/2018 05:55:00 PM,Stray,Normal,Cat,Spayed Female,15 years,Domestic Medium Hair Mix,Black/White,5800 Techni Center Drive,Austin ,TX,5800 Techni Center Drive Austin  TX,30.2797084,-97.66994849999999
230,230,1959,A772974,Magnolia,2018-05-25 15:49:00,05/25/2018 03:49:00 PM,Stray,Normal,Dog,Intact Female,3 months,Landseer Mix,Black/White,Teri Road And Springdale,Austin ,TX,Teri Road And Springdale Austin  TX,30.2042309,-97.7547788
231,231,1970,A780078,,2018-09-09 15:51:00,09/09/2018 03:51:00 PM,Stray,Normal,Cat,Spayed Female,3 years,Domestic Shorthair Mix,Calico,5706 Abilene Trail,Austin ,TX,5706 Abilene Trail Austin  TX,30.22431479999999,-97.8613405
232,232,1973,A774026,,2018-06-09 11:12:00,06/09/2018 11:12:00 AM,Stray,Normal,Cat,Intact Female,4 weeks,Turkish Van Mix,White/Black,12300 Riata Trace Parkway,Austin ,TX,12300 Riata Trace Parkway Austin  TX,30.4295249,-97.74763949999999
233,233,1974,A766606,Zeek,2018-02-12 16:42:00,02/12/2018 04:42:00 PM,Stray,Normal,Cat,Spayed Female,9 months,Domestic Shorthair Mix,Black,4605 Imperial Drive South,Austin ,TX,4605 Imperial Drive South Austin  TX,30.26460629999999,-97.6270752
234,234,1987,A778042,Mina,2018-08-07 15:33:00,08/07/2018 03:33:00 PM,Stray,Normal,Cat,Intact Female,1 day,Domestic Shorthair Mix,Brown Tabby/White,7201 Levander Loop,Austin ,TX,7201 Levander Loop Austin  TX,30.2527847,-97.6904186
235,235,1991,A772747,*Lamar,2018-05-23 11:13:00,05/23/2018 11:13:00 AM,Stray,Normal,Dog,Intact Male,5 months,Pit Bull/Australian Cattle Dog,White,1709 Colony Creek Drive,Austin ,TX,1709 Colony Creek Drive Austin  TX,30.3680878,-97.7139849
236,236,1997,A775187,,2018-06-26 10:27:00,06/26/2018 10:27:00 AM,Stray,Normal,Dog,Intact Female,1 month,Beagle/Dachshund,White/Tan,Decker Lane And Fm 969,Austin ,TX,Decker Lane And Fm 969 Austin  TX,30.276794,-97.6372739
237,237,2012,A775832,Charlie,2018-07-05 12:23:00,07/05/2018 12:23:00 PM,Stray,Normal,Dog,Neutered Male,2 years,English Springer Spaniel Mix,Brown/White,Braker Lane And Stone Lake Boulevard,Austin ,TX,Braker Lane And Stone Lake Boulevard Austin  TX,30.3988613,-97.7392732
238,238,2021,A777198,Sky,2018-07-24 17:29:00,07/24/2018 05:29:00 PM,Stray,Normal,Cat,Spayed Female,1 year,Maine Coon Mix,Brown Tabby,4404 Oltorf Street,Austin ,TX,4404 Oltorf Street Austin  TX,30.2279194,-97.7248224
239,239,2027,A780344,,2018-09-13 13:04:00,09/13/2018 01:04:00 PM,Stray,Normal,Cat,Intact Female,4 months,Domestic Shorthair Mix,Blue Tabby,7601 Daffan Lane,Austin ,TX,7601 Daffan Lane Austin  TX,30.3160645,-97.62482969999999
240,240,2045,A767643,,2018-03-04 16:46:00,03/04/2018 04:46:00 PM,Stray,Normal,Cat,Intact Male,2 years,Domestic Shorthair Mix,Brown Tabby,4711 Franklin Park,Austin ,TX,4711 Franklin Park Austin  TX,30.1970503,-97.740673
241,241,2047,A775425,,2018-06-29 17:05:00,06/29/2018 05:05:00 PM,Stray,Normal,Cat,Unknown,1 week,Domestic Shorthair Mix,Brown Tabby,5032 Irvine Lane,Del Valle ,TX,5032 Irvine Lane Del Valle  TX,30.178077,-97.619468
242,242,2061,A771478,,2018-05-05 15:14:00,05/05/2018 03:14:00 PM,Stray,Nursing,Cat,Intact Female,4 days,Domestic Shorthair Mix,Black Tabby,3809 South 2Nd St,Austin ,TX,3809 South 2Nd St Austin  TX,30.2285981,-97.7708649
243,243,2066,A770641,Bella,2018-04-23 11:28:00,04/23/2018 11:28:00 AM,Stray,Normal,Dog,Intact Female,1 year,Pit Bull/Catahoula,White/Tan,1700 Fm 1327,Creedmoor ,TX,1700 Fm 1327 Creedmoor  TX,30.0999352,-97.75525669999999
244,244,2070,A781205,,2018-09-25 16:48:00,09/25/2018 04:48:00 PM,Stray,Injured,Cat,Spayed Female,2 years,Domestic Shorthair Mix,Calico,2100 East Saint Elmo Road,Austin ,TX,2100 East Saint Elmo Road Austin  TX,30.2103024,-97.7465498
245,245,2072,A776652,,2018-07-17 11:07:00,07/17/2018 11:07:00 AM,Stray,Normal,Cat,Intact Female,3 weeks,Domestic Shorthair Mix,Black,1408 Sahara Avenue,Austin ,TX,1408 Sahara Avenue Austin  TX,30.2087866,-97.79377950000001
246,246,2074,A769416,*Marty,2018-04-04 16:29:00,04/04/2018 04:29:00 PM,Stray,Sick,Dog,Intact Male,1 year,Pit Bull Mix,White/Brown Brindle,9603 Thaxton Road,Austin ,TX,9603 Thaxton Road Austin  TX,30.1348496,-97.7336287
247,247,2077,A769610,Abby,2018-04-07 12:27:00,04/07/2018 12:27:00 PM,Stray,Normal,Dog,Intact Female,4 months,German Shepherd Mix,Black/Brown,901 Flatters Way,Pflugerville ,TX,901 Flatters Way Pflugerville  TX,30.4162751,-97.64567749999999
248,248,2084,A776853,,2018-07-20 10:53:00,07/20/2018 10:53:00 AM,Stray,Normal,Cat,Intact Male,2 years,Domestic Shorthair Mix,Brown Tabby,5200 Arcadia,Del Valle ,TX,5200 Arcadia Del Valle  TX,30.1713331,-97.6244328
249,249,2086,A781429,,2018-09-29 12:25:00,09/29/2018 12:25:00 PM,Stray,Normal,Dog,Intact Male,2 months,American Foxhound Mix,Tricolor,3207 Holton St,Austin ,TX,3207 Holton St Austin  TX,30.2570817,-97.70537900000001
250,250,2155,A770993,Tucker,2018-04-28 14:08:00,04/28/2018 02:08:00 PM,Stray,Normal,Dog,Intact Male,6 years,Pomeranian Mix,Red,South 6Th St And Barton Skyway,Austin ,TX,South 6Th St And Barton Skyway Austin  TX,30.2474861,-97.76513639999999
251,251,2166,A782864,,2018-10-22 12:46:00,10/22/2018 12:46:00 PM,Stray,Injured,Cat,Neutered Male,5 months,Domestic Shorthair Mix,Orange Tabby/White,2906 East Third Street,Austin ,TX,2906 East Third Street Austin  TX,30.2544407,-97.7103368
252,252,2174,A775957,Beauty,2018-10-27 13:26:00,10/27/2018 01:26:00 PM,Stray,Normal,Dog,Intact Female,1 year,Labrador Retriever/Pit Bull,Tan,7021 Hillcroft,Austin ,TX,7021 Hillcroft Austin  TX,30.3028818,-97.6412277
253,253,2175,A771121,,2018-04-30 18:20:00,04/30/2018 06:20:00 PM,Stray,Sick,Cat,Intact Male,4 weeks,Domestic Shorthair Mix,Blue/White,821 Gunter Street,Austin ,TX,821 Gunter Street Austin  TX,30.2598728,-97.7010052
254,254,2178,A785196,,2018-11-28 11:43:00,11/28/2018 11:43:00 AM,Stray,Normal,Cat,Intact Male,8 months,Domestic Shorthair Mix,Black/White,12330 Metric Boulevard,Austin ,TX,12330 Metric Boulevard Austin  TX,30.410769,-97.69687499999999
255,255,2202,A773622,,2018-06-03 14:19:00,06/03/2018 02:19:00 PM,Stray,Normal,Cat,Intact Female,1 week,Domestic Shorthair Mix,Tortie,1613 Cripple Creek,Austin ,TX,1613 Cripple Creek Austin  TX,30.3801778,-97.7047801
256,256,2220,A764741,*Gracie,2018-01-05 13:35:00,01/05/2018 01:35:00 PM,Stray,Injured,Dog,Intact Female,1 year,Plott Hound Mix,Black/White,6903 Rufus Rd,Austin ,TX,6903 Rufus Rd Austin  TX,30.3330798,-97.71330619999999
257,257,2231,A779538,,2018-09-02 13:09:00,09/02/2018 01:09:00 PM,Stray,Normal,Cat,Intact Female,1 year,Domestic Shorthair Mix,Brown Tabby,4801 South Congress Avenue,Austin ,TX,4801 South Congress Avenue Austin  TX,30.2130378,-97.76957879999999
258,258,2235,A783237,,2018-10-27 13:06:00,10/27/2018 01:06:00 PM,Stray,Normal,Dog,Intact Female,3 months,Cairn Terrier Mix,Tan/White,6108 Carnation Terrace,Austin ,TX,6108 Carnation Terrace Austin  TX,30.2317944,-97.701599
259,259,2270,A761265,Lucas,2018-02-01 18:15:00,02/01/2018 06:15:00 PM,Stray,Normal,Dog,Neutered Male,2 years,Border Collie Mix,Black/Gray,12836  Us 290,Travis ,TX,12836  Us 290 Travis  TX,30.350305,-97.52484059999999
260,260,2271,A770436,,2018-04-19 17:42:00,04/19/2018 05:42:00 PM,Stray,Normal,Cat,Intact Male,5 years,Domestic Shorthair Mix,Orange Tabby,1016 Camino La Costa,Austin ,TX,1016 Camino La Costa Austin  TX,30.32597599999999,-97.701444
261,261,2274,A785104,,2018-11-26 13:59:00,11/26/2018 01:59:00 PM,Stray,Normal,Cat,Intact Female,1 month,Domestic Medium Hair Mix,Torbie,3206 East Sixteenth Street,Austin ,TX,3206 East Sixteenth Street Austin  TX,30.2799932,-97.701599
262,262,2279,A784748,,2018-11-19 16:03:00,11/19/2018 04:03:00 PM,Stray,Normal,Cat,Intact Male,6 months,Domestic Shorthair Mix,White/Blue Tabby,10608 Slaughter Creek,Austin ,TX,10608 Slaughter Creek Austin  TX,30.1598171,-97.8205428
263,263,2287,A777679,Rocco,2018-08-01 12:28:00,08/01/2018 12:28:00 PM,Stray,Normal,Dog,Intact Male,5 months,Chihuahua Shorthair Mix,Brown/White,11717 Mcangus Road,Austin ,TX,11717 Mcangus Road Austin  TX,30.143134,-97.654421
264,264,2323,A768842,,2018-03-26 11:17:00,03/26/2018 11:17:00 AM,Stray,Normal,Cat,Intact Male,1 year,Siamese,White/Gray,1604 East 11Th Street,Austin ,TX,1604 East 11Th Street Austin  TX,30.2676175,-97.72386979999999
265,265,2340,A766326,Snow,2018-06-14 07:08:00,06/14/2018 07:08:00 AM,Stray,Normal,Dog,Intact Male,2 years,Siberian Husky Mix,White/White,I-35 & Howard Ln,Austin ,TX,I-35 & Howard Ln Austin  TX,30.4218353,-97.6688594
266,266,2341,A780125,,2018-09-10 11:10:00,09/10/2018 11:10:00 AM,Stray,Normal,Dog,Intact Female,2 months,Weimaraner/Vizsla,Chocolate,6602 Carissbrooke Lane,Austin ,TX,6602 Carissbrooke Lane Austin  TX,30.3528214,-97.6133491
267,267,2347,A767756,Sasha,2018-10-12 13:41:00,10/12/2018 01:41:00 PM,Stray,Normal,Dog,Intact Female,11 months,Pit Bull Mix,Brown Brindle,Tuscany Way And Springdale Road,Austin ,TX,Tuscany Way And Springdale Road Austin  TX,30.3238638,-97.65858460000001
268,268,2351,A785864,*Polly,2018-12-11 15:28:00,12/11/2018 03:28:00 PM,Stray,Normal,Dog,Intact Female,1 year,Basset Hound/Labrador Retriever,Black/White,2412 Bitter Creek Drive,Austin ,TX,2412 Bitter Creek Drive Austin  TX,30.1823466,-97.7572361
269,269,2355,A775814,Bella,2018-07-05 11:19:00,07/05/2018 11:19:00 AM,Stray,Normal,Dog,Spayed Female,4 years,Shih Tzu Mix,White/Gray,4550 Mueller Boulevard,Austin ,TX,4550 Mueller Boulevard Austin  TX,30.2972641,-97.70726599999999
270,270,2367,A783946,Loba,2018-11-09 10:21:00,11/09/2018 10:21:00 AM,Stray,Normal,Dog,Intact Female,3 years,Siberian Husky,Brown/White,9606 Carson Creek Blvd,Austin ,TX,9606 Carson Creek Blvd Austin  TX,30.2240227,-97.66606519999999
271,271,2369,A772877,*Latte,2018-05-24 14:20:00,05/24/2018 02:20:00 PM,Stray,Normal,Cat,Intact Male,3 weeks,Domestic Shorthair Mix,Black/White,13613 Alysheva Drive,Del Valle ,TX,13613 Alysheva Drive Del Valle  TX,30.1704835,-97.6103839
272,272,2371,A770335,,2018-04-18 11:55:00,04/18/2018 11:55:00 AM,Stray,Sick,Cat,Spayed Female,5 years,Domestic Shorthair Mix,Black/White,1654 E 3Rd,Austin ,TX,1654 E 3Rd Austin  TX,30.2598314,-97.7259665
273,273,2373,A779910,,2018-09-06 15:37:00,09/06/2018 03:37:00 PM,Stray,Normal,Cat,Intact Female,6 months,Domestic Shorthair Mix,Calico,Fm 812 And Highway 183,Travis ,TX,Fm 812 And Highway 183 Travis  TX,30.1641437,-97.6927921
274,274,2380,A786620,Remy,2018-12-28 15:57:00,12/28/2018 03:57:00 PM,Stray,Normal,Dog,Intact Female,2 years,Labrador Retriever Mix,Brown Brindle/White,East 45Th Street And Duval Street,Austin ,TX,East 45Th Street And Duval Street Austin  TX,30.3070066,-97.72458929999999
275,275,2383,A759394,Malcolm,2018-01-31 12:09:00,01/31/2018 12:09:00 PM,Stray,Normal,Dog,Neutered Male,1 year,Great Pyrenees Mix,White/Tan,7011 West Parmer Lane,Austin ,TX,7011 West Parmer Lane Austin  TX,30.4506315,-97.7497696
276,276,2385,A765280,*Jonah,2018-01-16 17:52:00,01/16/2018 05:52:00 PM,Stray,Normal,Dog,Intact Male,4 years,Catahoula Mix,Black/White,21433 Creekside Dr,Travis ,TX,21433 Creekside Dr Travis  TX,30.514218,-97.961173
277,277,2392,A777583,,2018-07-30 19:13:00,07/30/2018 07:13:00 PM,Stray,Normal,Dog,Intact Female,1 month,Chihuahua Shorthair/Pug,Brown/Black,North Lamar,Austin ,TX,North Lamar Austin  TX,30.3678193,-97.69008459999999
278,278,2404,A783493,,2018-10-31 14:48:00,10/31/2018 02:48:00 PM,Stray,Normal,Cat,Intact Female,1 month,Domestic Shorthair Mix,Tortie,2700 Crest Avenue,Austin ,TX,2700 Crest Avenue Austin  TX,30.2737572,-97.704059
279,279,2408,A773269,Pearl,2018-05-29 17:40:00,05/29/2018 05:40:00 PM,Stray,Normal,Dog,Intact Female,1 year,Labrador Retriever Mix,Cream/White,12203 Waterford Run Way,Manor ,TX,12203 Waterford Run Way Manor  TX,30.36589619999999,-97.52368779999999
280,280,2421,A766351,,2018-02-07 12:52:00,02/07/2018 12:52:00 PM,Stray,Normal,Cat,Intact Female,1 year,Domestic Shorthair Mix,Tortie,532 Tudor House Road,Pflugerville ,TX,532 Tudor House Road Pflugerville  TX,30.424914,-97.6402109
281,281,2432,A773740,Maurice,2018-06-04 19:12:00,06/04/2018 07:12:00 PM,Stray,Normal,Cat,Intact Male,2 weeks,Domestic Medium Hair Mix,White/Brown Tabby,4501 Bucks Run,Austin ,TX,4501 Bucks Run Austin  TX,30.1804615,-97.75671609999999
282,282,2441,A778624,Kuma,2018-08-17 18:12:00,08/17/2018 06:12:00 PM,Stray,Normal,Dog,Intact Male,4 years,Finnish Spitz Mix,Brown,1813 Golden Pheasant Drive,Austin ,TX,1813 Golden Pheasant Drive Austin  TX,30.3930785,-97.70380449999999
283,283,2456,A786270,,2018-12-20 18:05:00,12/20/2018 06:05:00 PM,Stray,Normal,Dog,Intact Male,1 year,Pit Bull/Labrador Retriever,Brown Brindle/White,Elroy Road And Mcangus Road,Austin ,TX,Elroy Road And Mcangus Road Austin  TX,30.1539334,-97.639793
284,284,2463,A782515,*Tortilla,2018-10-16 18:33:00,10/16/2018 06:33:00 PM,Stray,Normal,Cat,Intact Female,2 years,Domestic Shorthair Mix,Tortie,9200 North Plaza,Austin ,TX,9200 North Plaza Austin  TX,30.3544049,-97.6860561
285,285,2476,A780940,,2018-09-22 13:03:00,09/22/2018 01:03:00 PM,Stray,Normal,Cat,Intact Female,3 months,Domestic Shorthair Mix,Black,1205 Cullen Avenue,Austin ,TX,1205 Cullen Avenue Austin  TX,30.3401249,-97.7238167
286,286,2482,A776422,,2018-07-13 14:23:00,07/13/2018 02:23:00 PM,Stray,Normal,Cat,Intact Female,10 months,Domestic Shorthair Mix,Black,2763 Citation Drive,Del Valle ,TX,2763 Citation Drive Del Valle  TX,30.212579,-97.52838299999999
287,287,2483,A766324,Luke,2018-02-06 17:02:00,02/06/2018 05:02:00 PM,Stray,Normal,Dog,Neutered Male,2 years,Pit Bull Mix,Black/White,Thomas Springs And Circle Drive,Del Valle ,TX,Thomas Springs And Circle Drive Del Valle  TX,30.2462297,-97.9272763
288,288,2504,A777720,*Meryl,2018-08-02 10:23:00,08/02/2018 10:23:00 AM,Stray,Normal,Dog,Intact Female,6 months,Pit Bull Mix,Brown Brindle/White,15900 Decker Lake Road,Manor ,TX,15900 Decker Lake Road Manor  TX,30.267779,-97.565719
289,289,2511,A781009,Kmyla,2018-09-23 14:24:00,09/23/2018 02:24:00 PM,Stray,Normal,Dog,Spayed Female,10 years,Miniature Poodle Mix,White,19821 Isle Of Glass Street,Pflugerville ,TX,19821 Isle Of Glass Street Pflugerville  TX,30.4630895,-97.5591481
290,290,2514,A783741,,2018-11-05 12:58:00,11/05/2018 12:58:00 PM,Stray,Normal,Cat,Unknown,6 months,Domestic Shorthair Mix,Blue Tabby,1401 East Rundberg Lane,Austin ,TX,1401 East Rundberg Lane Austin  TX,30.3490239,-97.67995839999999
291,291,2517,A775756,*Gromit,2018-07-04 11:41:00,07/04/2018 11:41:00 AM,Stray,Normal,Cat,Intact Male,3 weeks,Domestic Shorthair Mix,Orange Tabby,North Lamar Boulevard And West Runberg Lane,Austin ,TX,North Lamar Boulevard And West Runberg Lane Austin  TX,30.363062,-97.6970274
292,292,2538,A772439,*Adele,2018-05-19 15:47:00,05/19/2018 03:47:00 PM,Stray,Normal,Cat,Intact Female,4 weeks,Domestic Shorthair Mix,Torbie,524 Tudor House,Pflugerville ,TX,524 Tudor House Pflugerville  TX,30.4255265,-97.6397446
293,293,2544,A777595,,2018-07-31 11:17:00,07/31/2018 11:17:00 AM,Stray,Normal,Dog,Intact Female,1 year,Dachshund Longhair Mix,Cream,East Avenue And Holiday Inn Boat Ramp,Austin ,TX,East Avenue And Holiday Inn Boat Ramp Austin  TX,30.252733,-97.7372999
294,294,2551,A780598,,2018-09-17 13:22:00,09/17/2018 01:22:00 PM,Stray,Normal,Cat,Intact Male,5 months,Domestic Shorthair Mix,Brown Tabby,2304 Barton Village Circle,Austin ,TX,2304 Barton Village Circle Austin  TX,30.24590929999999,-97.7825711
295,295,2555,A776532,*Badger,2018-07-15 12:48:00,07/15/2018 12:48:00 PM,Stray,Normal,Cat,Intact Male,1 month,Domestic Shorthair Mix,White/Black,1500 Alameda Drive,Austin ,TX,1500 Alameda Drive Austin  TX,30.2467595,-97.74397800000001
296,296,2564,A776584,,2018-07-16 12:43:00,07/16/2018 12:43:00 PM,Stray,Normal,Cat,Intact Female,8 months,Domestic Shorthair Mix,White/Orange Tabby,2113 Haskell Street,Austin ,TX,2113 Haskell Street Austin  TX,30.2511269,-97.7232334
297,297,2565,A767855,Luna,2018-03-08 11:05:00,03/08/2018 11:05:00 AM,Stray,Normal,Dog,Intact Female,2 years,Pit Bull Mix,Black/White,William Cannon Drive And Mancacha,Austin ,TX,William Cannon Drive And Mancacha Austin  TX,30.202829,-97.80688339999999
298,298,2615,A783538,Ebony,2018-11-01 13:45:00,11/01/2018 01:45:00 PM,Stray,Normal,Dog,Intact Female,8 months,Labrador Retriever Mix,Black/White,7313 North Lamar Boulevard,Austin ,TX,7313 North Lamar Boulevard Austin  TX,30.3404908,-97.7168578
299,299,2624,A649141,Banksy,2018-12-17 11:12:00,12/17/2018 11:12:00 AM,Stray,Normal,Dog,Neutered Male,7 years,Pit Bull Mix,White/Tan,Parker Road And Timber Ridge Drive,Austin ,TX,Parker Road And Timber Ridge Drive Austin  TX,30.2261991,-97.7412148
300,300,2632,A738268,Duke,2018-08-07 14:27:00,08/07/2018 02:27:00 PM,Stray,Normal,Dog,Spayed Female,3 years,Rottweiler Mix,Black/Tan,East William Cannon Drive And Interstate 35 Northbound Service Road,Austin ,TX,East William Cannon Drive And Interstate 35 Northbound Service Road Austin  TX,30.18768159999999,-97.77082419999999
301,301,2635,A778960,*Checkers,2018-08-23 11:50:00,08/23/2018 11:50:00 AM,Stray,Normal,Cat,Intact Male,2 months,Domestic Shorthair Mix,Brown Tabby/White,3112 East 12Th Street,Austin ,TX,3112 East 12Th Street Austin  TX,30.2769154,-97.70138689999999
302,302,2646,A785188,,2018-11-28 10:37:00,11/28/2018 10:37:00 AM,Stray,Sick,Cat,Intact Male,2 years,Domestic Shorthair Mix,White/Brown Tabby,9112 Evelyn Road,Travis ,TX,9112 Evelyn Road Travis  TX,30.066875,-97.679631
303,303,2653,A782692,,2018-10-19 17:55:00,10/19/2018 05:55:00 PM,Stray,Normal,Cat,Unknown,5 months,Domestic Shorthair Mix,Black/White,4909 York Hill Drive,Austin ,TX,4909 York Hill Drive Austin  TX,30.289205,-97.67093299999999
304,304,2662,A769145,Clara,2018-03-31 11:28:00,03/31/2018 11:28:00 AM,Stray,Normal,Dog,Spayed Female,2 years,Pit Bull Mix,Blue/White,Yupon And Spicewood Springs,Austin ,TX,Yupon And Spicewood Springs Austin  TX,30.3909704,-97.7768294
305,305,2675,A769208,,2018-04-01 12:52:00,04/01/2018 12:52:00 PM,Stray,Normal,Dog,Intact Female,2 months,Labrador Retriever Mix,Black/White,Rutland Drive And North Lamar Boulevard,Austin ,TX,Rutland Drive And North Lamar Boulevard Austin  TX,30.3648712,-97.6959943
306,306,2679,A759173,Paco,2018-01-06 18:02:00,01/06/2018 06:02:00 PM,Stray,Normal,Dog,Neutered Male,11 months,Pit Bull Mix,Brown Brindle,Tayside Drive And Harris Ridge Boulevard,Pflugerville ,TX,Tayside Drive And Harris Ridge Boulevard Pflugerville  TX,30.4133067,-97.64611049999999
307,307,2682,A783858,,2018-11-07 15:53:00,11/07/2018 03:53:00 PM,Stray,Normal,Cat,Intact Male,1 month,Domestic Shorthair Mix,Black,3110 Guadalupe Street,Austin ,TX,3110 Guadalupe Street Austin  TX,30.2985513,-97.74112009999999
308,308,2689,A780738,,2018-09-19 15:14:00,09/19/2018 03:14:00 PM,Stray,Normal,Cat,Intact Male,2 weeks,Domestic Shorthair Mix,Torbie/White,6708 Broad Brook Drive,Austin ,TX,6708 Broad Brook Drive Austin  TX,30.1553043,-97.7410125
309,309,2699,A778505,,2018-08-15 16:18:00,08/15/2018 04:18:00 PM,Stray,Normal,Cat,Neutered Male,10 years,Domestic Shorthair Mix,Black/White,1645 East 6Th Street,Austin ,TX,1645 East 6Th Street Austin  TX,30.2621564,-97.72495169999999
310,310,2703,A783746,,2018-11-05 13:43:00,11/05/2018 01:43:00 PM,Stray,Normal,Cat,Unknown,2 years,Domestic Shorthair Mix,Orange Tabby,2700 Crest Avenue,Austin ,TX,2700 Crest Avenue Austin  TX,30.2737572,-97.704059
311,311,2704,A778753,Jax,2018-08-19 19:07:00,08/19/2018 07:07:00 PM,Stray,Normal,Dog,Neutered Male,7 years,Lhasa Apso Mix,White,Elm Creek And 290,Travis ,TX,Elm Creek And 290 Travis  TX,30.1963096,-98.00413309999999
312,312,2708,A786400,,2018-12-23 16:06:00,12/23/2018 04:06:00 PM,Stray,Normal,Cat,Unknown,2 years,Domestic Medium Hair Mix,Chocolate,13553 Research Boulevard Northbound Service Road,Austin ,TX,13553 Research Boulevard Northbound Service Road Austin  TX,30.4518898,-97.7894558
313,313,2711,A764980,*Johnny,2018-01-10 13:26:00,01/10/2018 01:26:00 PM,Stray,Normal,Dog,Intact Male,3 years,Basset Hound Mix,Brown/White,2200 Dovehill,Austin ,TX,2200 Dovehill Austin  TX,30.1925889,-97.7562492
314,314,2722,A772168,*Phoebe,2018-11-14 18:26:00,11/14/2018 06:26:00 PM,Stray,Normal,Dog,Spayed Female,1 year,Pit Bull Mix,White/Brown,400 W Anderson Lane,Austin ,TX,400 W Anderson Lane Austin  TX,30.346493,-97.70742
315,315,2724,A673207,Blake,2018-03-10 16:00:00,03/10/2018 04:00:00 PM,Stray,Sick,Cat,Neutered Male,4 years,Domestic Shorthair Mix,Brown Tabby/White,1301 East Saint Johns Avenue,Austin ,TX,1301 East Saint Johns Avenue Austin  TX,30.3270112,-97.6936044
316,316,2741,A780311,Bruno,2018-09-12 17:56:00,09/12/2018 05:56:00 PM,Stray,Normal,Dog,Intact Male,2 months,Boxer/Labrador Retriever,White/Tricolor,9604 North Creek Drive,Austin ,TX,9604 North Creek Drive Austin  TX,30.3630489,-97.6901482
317,317,2755,A768387,*Ellis,2018-03-18 15:14:00,03/18/2018 03:14:00 PM,Stray,Normal,Cat,Neutered Male,10 years,Balinese Mix,Seal Point,Onion Creek And Wild Onion,Austin ,TX,Onion Creek And Wild Onion Austin  TX,30.16996289999999,-97.7516552
318,318,2757,A758364,Elsa,2018-07-09 16:10:00,07/09/2018 04:10:00 PM,Stray,Normal,Dog,Intact Female,5 years,Jack Russell Terrier/Beagle,Tan/White,1102 Tillery Street,Austin ,TX,1102 Tillery Street Austin  TX,30.2647697,-97.7030411
319,319,2768,A777619,,2018-07-31 14:53:00,07/31/2018 02:53:00 PM,Stray,Normal,Cat,Intact Male,4 weeks,Domestic Shorthair Mix,Brown Tabby,North Loop And Guadlupe,Austin ,TX,North Loop And Guadlupe Austin  TX,30.3199387,-97.72696839999999
320,320,2783,A782437,*Bubele,2018-10-15 11:18:00,10/15/2018 11:18:00 AM,Stray,Normal,Cat,Intact Female,2 years,Domestic Shorthair Mix,Tortie,Lifford Court,Austin ,TX,Lifford Court Austin  TX,30.38441619999999,-97.6567894
321,321,2803,A775949,,2018-07-06 16:46:00,07/06/2018 04:46:00 PM,Stray,Sick,Cat,Intact Female,4 weeks,Domestic Shorthair Mix,Blue Tabby/White,Ross Road And Highway 71,Del Valle ,TX,Ross Road And Highway 71 Del Valle  TX,30.1864188,-97.60953789999999
322,322,2811,A769915,Lenny,2018-09-03 11:09:00,09/03/2018 11:09:00 AM,Stray,Normal,Dog,Neutered Male,1 year,Labrador Retriever Mix,Tan/White,5609 Medicine Creek Drive,Austin ,TX,5609 Medicine Creek Drive Austin  TX,30.2565457,-97.8831939
323,323,2816,A766777,,2018-02-16 13:01:00,02/16/2018 01:01:00 PM,Stray,Normal,Dog,Intact Female,1 year,Australian Shepherd Mix,Black/Tricolor,11317 Doyle Overton,Austin ,TX,11317 Doyle Overton Austin  TX,30.0793482,-97.6391513
324,324,2835,A771463,,2018-05-05 13:29:00,05/05/2018 01:29:00 PM,Stray,Normal,Cat,Intact Male,3 weeks,Domestic Shorthair Mix,Blue/White,741 Cherico Street,Austin ,TX,741 Cherico Street Austin  TX,30.2588223,-97.70287139999999
325,325,2844,A786297,Pixie,2018-12-21 13:51:00,12/21/2018 01:51:00 PM,Stray,Normal,Dog,Spayed Female,1 year,Labrador Retriever Mix,Black,1501 Town Creek Drive,Austin ,TX,1501 Town Creek Drive Austin  TX,30.2418466,-97.7267761
326,326,2849,A773707,Moose,2018-06-04 15:00:00,06/04/2018 03:00:00 PM,Stray,Normal,Cat,Intact Male,1 month,Domestic Medium Hair Mix,White/Black,Chote,Austin ,TX,Chote Austin  TX,30.2608791,-97.6973788
327,327,2854,A772492,*Harriet,2018-05-20 12:38:00,05/20/2018 12:38:00 PM,Stray,Normal,Dog,Intact Female,1 year,Australian Cattle Dog/Border Collie,White,Highway 71,Del Valle ,TX,Highway 71 Del Valle  TX,30.2077691,-97.6481491
328,328,2861,A766556,*Willie,2018-02-11 16:34:00,02/11/2018 04:34:00 PM,Stray,Normal,Dog,Intact Male,2 years,Jack Russell Terrier Mix,Tan/White,12613 Paloma Blanca Way,Del Valle ,TX,12613 Paloma Blanca Way Del Valle  TX,30.1667912,-97.6268633
329,329,2868,A779462,Leo,2018-09-01 13:35:00,09/01/2018 01:35:00 PM,Stray,Normal,Dog,Intact Male,1 year,Border Collie Mix,Tricolor,South Lakeshore Boulevard And East Riverside Drive,Austin ,TX,South Lakeshore Boulevard And East Riverside Drive Austin  TX,30.2447591,-97.7303149
330,330,2881,A777780,*Sasha,2018-08-03 11:36:00,08/03/2018 11:36:00 AM,Stray,Normal,Dog,Intact Female,1 year,Siberian Husky Mix,Black/Tricolor,508 East Howard Lane,Austin ,TX,508 East Howard Lane Austin  TX,30.4140945,-97.6523092
331,331,2912,A661325,Alfonso,2018-12-31 13:43:00,12/31/2018 01:43:00 PM,Stray,Normal,Dog,Neutered Male,6 years,Shih Tzu Mix,Black/White,Wilma Rudolph Road And Georgia Coleman Bend,Austin ,TX,Wilma Rudolph Road And Georgia Coleman Bend Austin  TX,30.1549864,-97.8437417
332,332,2915,A783827,,2018-11-07 11:34:00,11/07/2018 11:34:00 AM,Stray,Normal,Cat,Intact Female,6 months,Domestic Shorthair Mix,Calico/White,11804 Pinto Circle,Travis ,TX,11804 Pinto Circle Travis  TX,30.063705,-97.706301
333,333,2918,A778986,Oreo,2018-08-23 16:40:00,08/23/2018 04:40:00 PM,Stray,Normal,Dog,Spayed Female,1 year,Border Collie Mix,Black/White,Riverside And Vargas,Austin ,TX,Riverside And Vargas Austin  TX,30.2240637,-97.7010957
334,334,2924,A765021,*Sabrina,2018-01-11 14:20:00,01/11/2018 02:20:00 PM,Stray,Normal,Cat,Spayed Female,1 year,Domestic Medium Hair Mix,Black,Mount Bonnell,Austin ,TX,Mount Bonnell Austin  TX,30.3207616,-97.77334019999999
335,335,2935,A780365,,2018-09-13 17:00:00,09/13/2018 05:00:00 PM,Stray,Normal,Dog,Intact Male,1 year,Bruss Griffon Mix,Tan/Black,Breckenridge Drive,Austin ,TX,Breckenridge Drive Austin  TX,30.1983536,-97.6987553
336,336,2936,A782041,,2018-10-09 19:19:00,10/09/2018 07:19:00 PM,Stray,Normal,Dog,Intact Male,1 month,English Coonhound Mix,Sable/Black,7201 Levander Loop,Austin ,TX,7201 Levander Loop Austin  TX,30.2527847,-97.6904186
337,337,2943,A766919,*Tigress,2018-02-19 16:26:00,02/19/2018 04:26:00 PM,Stray,Normal,Cat,Intact Female,9 months,Domestic Shorthair Mix,Brown Tabby,6407 East Riverside Drive,Austin ,TX,6407 East Riverside Drive Austin  TX,30.2240974,-97.7020125
338,338,2944,A766696,Azya,2018-03-13 10:31:00,03/13/2018 10:31:00 AM,Stray,Normal,Dog,Spayed Female,4 years,German Shepherd Mix,White,11500 Prince Phillip Way,Manor ,TX,11500 Prince Phillip Way Manor  TX,30.3586628,-97.5456243
339,339,2970,A772285,,2018-05-17 07:04:00,05/17/2018 07:04:00 AM,Stray,Nursing,Cat,Intact Male,1 weeks,Domestic Medium Hair Mix,Brown Tabby/Black,St Elmo & I-35,Austin ,TX,St Elmo & I-35 Austin  TX,30.2174931,-97.7612044
340,340,2971,A779047,,2018-08-24 15:10:00,08/24/2018 03:10:00 PM,Stray,Normal,Cat,Spayed Female,7 years,Domestic Shorthair Mix,White/Blue,11902 Brookwood Road,Austin ,TX,11902 Brookwood Road Austin  TX,30.4434314,-97.7914888
341,341,2980,A778749,*Jazzpurr,2018-08-19 17:27:00,08/19/2018 05:27:00 PM,Stray,Normal,Cat,Intact Male,10 years,Domestic Shorthair Mix,Orange Tabby,2308 Tamarisk Circle,Austin ,TX,2308 Tamarisk Circle Austin  TX,30.195489,-97.7519198
342,342,2982,A777854,*Jeremiah,2018-08-04 13:34:00,08/04/2018 01:34:00 PM,Stray,Normal,Dog,Neutered Male,10 years,Chihuahua Shorthair Mix,Blue/Tan,1209 Singleton Ave,Austin ,TX,1209 Singleton Ave Austin  TX,30.2754614,-97.71390009999999
343,343,2986,A712282,*Israel,2018-12-04 13:29:00,12/04/2018 01:29:00 PM,Stray,Normal,Dog,Neutered Male,6 years,Labrador Retriever Mix,Black,1201 Payton Gin,Austin ,TX,1201 Payton Gin Austin  TX,30.3602094,-97.7083219
344,344,2991,A771380,,2018-05-03 08:39:00,05/03/2018 08:39:00 AM,Stray,Sick,Cat,Unknown,2 weeks,Domestic Shorthair Mix,Orange Tabby,Stearns Gale Dr And Stearns Dr,Austin ,TX,Stearns Gale Dr And Stearns Dr Austin  TX,30.267153,-97.7430608
345,345,2992,A774422,,2018-06-15 11:02:00,06/15/2018 11:02:00 AM,Stray,Normal,Dog,Intact Female,1 month,Catahoula Mix,Blue Merle,Hunt Trail And Treadwell,Austin ,TX,Hunt Trail And Treadwell Austin  TX,30.3439017,-97.7476246
346,346,2995,A769910,Lady,2018-04-12 12:50:00,04/12/2018 12:50:00 PM,Stray,Normal,Dog,Intact Female,1 year,Pit Bull Mix,Blue/White,18000 Majestic Elm,Travis ,TX,18000 Majestic Elm Travis  TX,30.3507319,-97.43034019999999
347,347,2997,A779308,,2018-08-29 16:38:00,08/29/2018 04:38:00 PM,Stray,Normal,Cat,Intact Female,1 month,Domestic Shorthair Mix,Black,14906 Zurick Drive,Del Valle ,TX,14906 Zurick Drive Del Valle  TX,30.1301897,-97.6118032
348,348,3004,A778776,Cielo,2018-08-20 12:14:00,08/20/2018 12:14:00 PM,Stray,Normal,Cat,Intact Female,2 years,Domestic Shorthair Mix,Torbie,12113 Metric,Austin ,TX,12113 Metric Austin  TX,30.4038222,-97.69841799999999
349,349,3011,A783547,,2018-11-01 15:12:00,11/01/2018 03:12:00 PM,Stray,Nursing,Cat,Intact Male,2 days,Domestic Shorthair Mix,Black Tabby,9200 North Plaza,Austin ,TX,9200 North Plaza Austin  TX,30.3544049,-97.6860561
350,350,3020,A779798,Daisy,2018-09-05 16:59:00,09/05/2018 04:59:00 PM,Stray,Normal,Dog,Intact Female,2 months,Labrador Retriever Mix,Black/White,2014 De Verne Street,Austin ,TX,2014 De Verne Street Austin  TX,30.24934,-97.7776032
351,351,3023,A772398,,2018-05-19 11:03:00,05/19/2018 11:03:00 AM,Stray,Normal,Cat,Unknown,1 week,Domestic Shorthair Mix,Blue Tabby,3809 Caldwell Lane,Del Valle ,TX,3809 Caldwell Lane Del Valle  TX,30.1944734,-97.5513612
352,352,3034,A777070,,2018-07-23 10:31:00,07/23/2018 10:31:00 AM,Stray,Normal,Dog,Intact Female,1 month,Border Collie Mix,Black/White,10001 Peterson Road,Del Valle ,TX,10001 Peterson Road Del Valle  TX,30.1038794,-97.6291936
353,353,3043,A765685,Daisy,2018-01-24 16:35:00,01/24/2018 04:35:00 PM,Stray,Normal,Dog,Spayed Female,10 years,Maltese Mix,White,2336 Douglas Street,Austin ,TX,2336 Douglas Street Austin  TX,30.2283098,-97.73297099999999
354,354,3044,A775852,,2018-07-05 14:03:00,07/05/2018 02:03:00 PM,Stray,Normal,Cat,Intact Male,2 weeks,Domestic Shorthair Mix,Brown Tabby/White,210 West Eggleston,Manor ,TX,210 West Eggleston Manor  TX,30.3429404,-97.55914899999999
355,355,3045,A786464,Chester,2018-12-26 08:39:00,12/26/2018 08:39:00 AM,Stray,Injured,Cat,Neutered Male,8 months,Domestic Shorthair,Orange Tabby,10003 Wayside Blvd,Austin ,TX,10003 Wayside Blvd Austin  TX,30.2723334,-97.6213133
356,356,3046,A782523,Oso,2018-10-16 18:50:00,10/16/2018 06:50:00 PM,Stray,Normal,Dog,Intact Male,1 year,Chihuahua Shorthair Mix,Tan,1605 Kramer Lane,Austin ,TX,1605 Kramer Lane Austin  TX,30.3846599,-97.70276539999999
357,357,3056,A769482,Rocky,2018-04-05 14:28:00,04/05/2018 02:28:00 PM,Stray,Injured,Dog,Neutered Male,2 years,Labrador Retriever Mix,Black/White,Valley Oak Dr & Hancock Dr,Austin ,TX,Valley Oak Dr & Hancock Dr Austin  TX,30.3314003,-97.7569051
358,358,3057,A770891,,2018-04-26 18:23:00,04/26/2018 06:23:00 PM,Stray,Normal,Dog,Intact Female,3 years,Chihuahua Shorthair Mix,Tan,Mira Loma Lane And Vanderbilt Lane,Austin ,TX,Mira Loma Lane And Vanderbilt Lane Austin  TX,30.3211614,-97.68374899999999
359,359,3075,A766377,Luna,2018-02-07 17:57:00,02/07/2018 05:57:00 PM,Stray,Normal,Dog,Intact Female,9 months,Norfolk Terrier Mix,Tan,11923 Us Highway 290 East,Manor ,TX,11923 Us Highway 290 East Manor  TX,30.3213503,-97.6938323
360,360,3076,A785446,,2018-12-03 12:48:00,12/03/2018 12:48:00 PM,Stray,Normal,Dog,Intact Male,2 months,Australian Shepherd Mix,Blue Merle/White,2201 Montopolis,Austin ,TX,2201 Montopolis Austin  TX,30.2221438,-97.7042472
361,361,3078,A786296,*Misaki,2018-12-21 13:33:00,12/21/2018 01:33:00 PM,Stray,Normal,Cat,Intact Female,2 years,Domestic Shorthair Mix,Calico,Alvin High Lane And Osborne Drive,Austin ,TX,Alvin High Lane And Osborne Drive Austin  TX,30.4608543,-97.76021519999999
362,362,3089,A772366,Osiris,2018-06-23 11:30:00,06/23/2018 11:30:00 AM,Stray,Normal,Dog,Intact Male,2 years,Pit Bull Mix,Blue/White,West Anderson Lane And Gault Street,Austin ,TX,West Anderson Lane And Gault Street Austin  TX,30.35028029999999,-97.71847869999999
363,363,3094,A780230,,2018-09-11 14:32:00,09/11/2018 02:32:00 PM,Stray,Normal,Cat,Intact Female,5 months,Domestic Shorthair Mix,Torbie,8805 Cainewood Lane,Austin ,TX,8805 Cainewood Lane Austin  TX,30.45558,-97.772345
364,364,3101,A785865,Doggie H,2018-12-11 15:37:00,12/11/2018 03:37:00 PM,Stray,Injured,Dog,Intact Male,1 year,Australian Cattle Dog Mix,Red/White,Clarkson Ave,Austin ,TX,Clarkson Ave Austin  TX,30.301589,-97.716634
365,365,3102,A771023,*Fergus,2018-04-29 10:46:00,04/29/2018 10:46:00 AM,Stray,Normal,Dog,Intact Male,1 month,Irish Terrier Mix,Tan/White,Montopolis And Highway 71,Austin ,TX,Montopolis And Highway 71 Austin  TX,30.22661119999999,-97.7692022
366,366,3120,A777939,,2018-08-06 08:49:00,08/06/2018 08:49:00 AM,Stray,Injured,Cat,Spayed Female,1 year,Domestic Shorthair Mix,Tortie,5801 Thames,Austin ,TX,5801 Thames Austin  TX,30.3106091,-97.6866285
367,367,3133,A785995,Baby Cakes,2018-12-14 13:14:00,12/14/2018 01:14:00 PM,Stray,Normal,Dog,Intact Female,2 years,Labrador Retriever Mix,Tan/White,3406 Catalina,Austin ,TX,3406 Catalina Austin  TX,30.21891969999999,-97.7391028
368,368,3161,A771939,*Yanny,2018-05-12 12:30:00,05/12/2018 12:30:00 PM,Stray,Normal,Cat,Intact Male,2 years,Domestic Shorthair Mix,Orange Tabby,1156 West Cesar Chavez,Austin ,TX,1156 West Cesar Chavez Austin  TX,30.269764,-97.7591144
369,369,3167,A784134,Nestle,2018-11-12 13:10:00,11/12/2018 01:10:00 PM,Stray,Normal,Dog,Neutered Male,2 years,German Shepherd,Brown Brindle,Williamson Road And Goforth Road,Austin ,TX,Williamson Road And Goforth Road Austin  TX,30.0464842,-97.7211993
370,370,3180,A786025,,2018-12-15 11:13:00,12/15/2018 11:13:00 AM,Stray,Injured,Cat,Intact Male,2 years,Domestic Shorthair Mix,White/Brown Tabby,1806 East Riverside,Austin ,TX,1806 East Riverside Austin  TX,30.24352439999999,-97.72908849999999
371,371,3197,A777787,*Peanut,2018-08-03 12:02:00,08/03/2018 12:02:00 PM,Stray,Sick,Dog,Intact Male,3 years,Chihuahua Shorthair Mix,Brown/White,1301 Crossing Place,Austin ,TX,1301 Crossing Place Austin  TX,30.2368004,-97.7111204
372,372,3200,A783260,Camo,2018-10-27 17:23:00,10/27/2018 05:23:00 PM,Stray,Normal,Cat,Spayed Female,2 years,Domestic Longhair Mix,Calico,1504 Man-O-War,Del Valle ,TX,1504 Man-O-War Del Valle  TX,30.221392,-97.5211999
373,373,3208,A766426,,2018-02-08 17:45:00,02/08/2018 05:45:00 PM,Stray,Normal,Dog,Intact Male,3 years,Glen Of Imaal Mix,Tan,7603 Wynne Ln,Austin ,TX,7603 Wynne Ln Austin  TX,30.191253,-97.80278799999999
374,374,3210,A768151,Watermelon,2018-10-23 11:57:00,10/23/2018 11:57:00 AM,Stray,Normal,Dog,Spayed Female,2 years,Pit Bull Mix,Brown Brindle/White,Springdale Road And Sprinkle Road,Austin ,TX,Springdale Road And Sprinkle Road Austin  TX,30.3517432,-97.64642649999999
375,375,3212,A775981,,2018-07-07 11:12:00,07/07/2018 11:12:00 AM,Stray,Normal,Cat,Unknown,5 months,Domestic Shorthair Mix,White/Orange Tabby,11325 Briarcreek Loop,Manor ,TX,11325 Briarcreek Loop Manor  TX,30.313962,-97.53645399999999
376,376,3215,A778600,Lito,2018-08-17 13:28:00,08/17/2018 01:28:00 PM,Stray,Normal,Cat,Intact Male,2 months,Domestic Shorthair Mix,Black/White,1416 Montopolis Drive,Austin ,TX,1416 Montopolis Drive Austin  TX,30.229166,-97.70134449999999
377,377,3221,A780063,*Whisky,2018-09-09 14:18:00,09/09/2018 02:18:00 PM,Stray,Normal,Dog,Intact Male,1 year,Yorkshire Terrier Mix,Chocolate/Tan,4600 Elmont Drive,Austin ,TX,4600 Elmont Drive Austin  TX,30.23830599999999,-97.716965
378,378,3234,A772994,,2018-05-26 11:07:00,05/26/2018 11:07:00 AM,Stray,Normal,Cat,Intact Male,1 month,Domestic Shorthair Mix,Gray Tabby,2012 Garden St,Austin ,TX,2012 Garden St Austin  TX,30.2537653,-97.72349849999999
379,379,3255,A776963,,2018-07-21 13:41:00,07/21/2018 01:41:00 PM,Stray,Normal,Cat,Intact Female,3 weeks,Domestic Shorthair Mix,White/Brown Tabby,2102 Yellow Jacket,Austin ,TX,2102 Yellow Jacket Austin  TX,30.2200543,-97.6964777
380,380,3269,A779313,,2018-08-29 18:42:00,08/29/2018 06:42:00 PM,Stray,Normal,Dog,Intact Female,1 year,Miniature Poodle Mix,White,Brougham Way And Drummond Drive,Austin ,TX,Brougham Way And Drummond Drive Austin  TX,30.37170309999999,-97.6129998
381,381,3272,A785647,,2018-12-06 18:33:00,12/06/2018 06:33:00 PM,Stray,Normal,Dog,Intact Female,1 month,Chihuahua Shorthair Mix,Black,9401 North  Interstae Highway 35,Austin ,TX,9401 North  Interstae Highway 35 Austin  TX,30.3581048,-97.6869069
382,382,3282,A780119,*Amber,2018-09-10 10:30:00,09/10/2018 10:30:00 AM,Stray,Normal,Cat,Intact Female,4 months,Domestic Shorthair Mix,Calico,7001 Creedmoor Rd,Travis ,TX,7001 Creedmoor Rd Travis  TX,30.1586738,-97.69137800000001
383,383,3285,A781222,,2018-09-25 18:52:00,09/25/2018 06:52:00 PM,Stray,Normal,Cat,Intact Female,1 year,Snowshoe/Siamese,Lynx Point/White,1325 North Fm 973 Road,Austin ,TX,1325 North Fm 973 Road Austin  TX,30.2331093,-97.6270136
384,384,3286,A765136,,2018-01-13 15:47:00,01/13/2018 03:47:00 PM,Stray,Normal,Dog,Intact Male,1 year,Miniature Poodle Mix,Tan,Rutland And Metric,Austin ,TX,Rutland And Metric Austin  TX,30.3806072,-97.7159003
385,385,3289,A754348,*Goober,2018-04-16 11:13:00,04/16/2018 11:13:00 AM,Stray,Normal,Dog,Neutered Male,10 months,Border Collie Mix,Black/White,7201 Levander Loop,Austin ,TX,7201 Levander Loop Austin  TX,30.2527847,-97.6904186
386,386,3305,A783133,,2018-10-25 17:25:00,10/25/2018 05:25:00 PM,Stray,Normal,Dog,Intact Male,3 years,Pomeranian Mix,Tan/Tricolor,20001 Andrew Johnson Drive,Manor ,TX,20001 Andrew Johnson Drive Manor  TX,30.356623,-97.5048448
387,387,3318,A775627,Sami,2018-07-02 18:48:00,07/02/2018 06:48:00 PM,Stray,Normal,Cat,Intact Male,1 month,Domestic Shorthair Mix,Black,107 Bermuda Drive,Travis ,TX,107 Bermuda Drive Travis  TX,30.1173679,-97.8227946
388,388,3319,A767057,*Ed,2018-02-22 12:57:00,02/22/2018 12:57:00 PM,Stray,Normal,Cat,Intact Male,5 weeks,Domestic Shorthair Mix,Orange Tabby/White,11215 Research Boulevard,Austin ,TX,11215 Research Boulevard Austin  TX,30.4086948,-97.7444024
389,389,3347,A766975,Maximus,2018-02-20 12:01:00,02/20/2018 12:01:00 PM,Stray,Normal,Dog,Intact Male,1 year,Dachshund Mix,Brown,10300 Taylor Lane,Manor ,TX,10300 Taylor Lane Manor  TX,30.3012834,-97.5325068
390,390,3350,A775917,Blacky,2018-07-06 14:08:00,07/06/2018 02:08:00 PM,Stray,Normal,Dog,Intact Male,2 months,Rottweiler Mix,Black/Tan,5701 Johnny Morris Rd,Austin ,TX,5701 Johnny Morris Rd Austin  TX,30.2919247,-97.6532215
391,391,3351,A772751,,2018-05-23 11:40:00,05/23/2018 11:40:00 AM,Stray,Normal,Cat,Intact Female,3 weeks,Domestic Shorthair Mix,Black/White,Westgate Boulevard And West William Cannon Drive,Austin ,TX,Westgate Boulevard And West William Cannon Drive Austin  TX,30.2071514,-97.81551209999999
392,392,3352,A774362,*Kahlo,2018-06-14 12:10:00,06/14/2018 12:10:00 PM,Stray,Normal,Cat,Intact Female,4 weeks,Domestic Shorthair Mix,Black,1114 Terry Drive,Austin ,TX,1114 Terry Drive Austin  TX,30.2681142,-97.6804377
393,393,3360,A777851,*Raven,2018-08-04 13:29:00,08/04/2018 01:29:00 PM,Stray,Normal,Cat,Intact Female,3 months,Domestic Shorthair Mix,Black,Littig Road,Travis ,TX,Littig Road Travis  TX,30.3200128,-97.45006339999999
394,394,3368,A781739,,2018-10-04 15:35:00,10/04/2018 03:35:00 PM,Stray,Normal,Dog,Intact Male,2 months,Chinese Sharpei Mix,Tan,9708 Eastwend Drive,Austin ,TX,9708 Eastwend Drive Austin  TX,30.36535569999999,-97.69277749999999
395,395,3370,A782107,*Blue,2018-10-10 15:48:00,10/10/2018 03:48:00 PM,Stray,Normal,Dog,Intact Female,1 month,Labrador Retriever Mix,Black/White,18036 Morrow St,Travis ,TX,18036 Morrow St Travis  TX,30.3467928,-97.7207875
396,396,3383,A765077,*Will,2018-01-12 15:06:00,01/12/2018 03:06:00 PM,Stray,Normal,Dog,Intact Male,1 year,Border Collie Mix,Black/White,8508 Forest Heights Ln,Austin ,TX,8508 Forest Heights Ln Austin  TX,30.2114429,-97.8683124
397,397,3386,A769676,*Charlie,2018-04-08 16:12:00,04/08/2018 04:12:00 PM,Stray,Normal,Dog,Intact Male,11 years,Labrador Retriever Mix,White/Black,3615 Pennsylvania Avenue,Austin ,TX,3615 Pennsylvania Avenue Austin  TX,30.27554099999999,-97.6938758
398,398,3393,A777803,,2018-08-03 15:21:00,08/03/2018 03:21:00 PM,Stray,Normal,Dog,Intact Female,6 years,Chihuahua Shorthair Mix,Black/Brown,1109 Glen Summer Cove,Austin ,TX,1109 Glen Summer Cove Austin  TX,30.3841109,-97.66152939999999
399,399,3411,A776070,Scooby,2018-07-08 13:02:00,07/08/2018 01:02:00 PM,Stray,Normal,Dog,Neutered Male,5 years,Labrador Retriever Mix,Tan,1740 Timber Ridge Road,Austin ,TX,1740 Timber Ridge Road Austin  TX,30.225547,-97.742403
400,400,3415,A778757,,2018-08-20 07:13:00,08/20/2018 07:13:00 AM,Stray,Sick,Cat,Intact Male,4 weeks,Domestic Longhair Mix,Brown Tabby,Thaxtouis Pl,Austin ,TX,Thaxtouis Pl Austin  TX,30.267153,-97.7430608
401,401,3425,A771082,*Onyx,2018-04-30 12:17:00,04/30/2018 12:17:00 PM,Stray,Normal,Cat,Intact Male,3 weeks,Domestic Shorthair Mix,Black,2735 East 7Th Street,Austin ,TX,2735 East 7Th Street Austin  TX,30.2596454,-97.7105701
402,402,3436,A765054,,2018-01-12 11:31:00,01/12/2018 11:31:00 AM,Stray,Normal,Dog,Intact Male,1 month,Anatol Shepherd/Great Pyrenees,Sable/White,Unice Drive,Travis ,TX,Unice Drive Travis  TX,30.2806504,-97.4818121
403,403,3441,A775112,*Cobain,2018-11-05 17:27:00,11/05/2018 05:27:00 PM,Stray,Normal,Cat,Neutered Male,5 months,Domestic Shorthair Mix,Cream Tabby,1712 Camino Viejo,Austin ,TX,1712 Camino Viejo Austin  TX,30.4076349,-97.6929471
404,404,3446,A779036,Sugar,2018-08-24 13:55:00,08/24/2018 01:55:00 PM,Stray,Normal,Dog,Intact Female,1 year,Rottweiler,Black/Tan,7601 Compass Dr,Austin ,TX,7601 Compass Dr Austin  TX,30.310088,-97.64081089999999
405,405,3454,A660035,Lucy,2018-11-12 12:03:00,11/12/2018 12:03:00 PM,Stray,Normal,Dog,Spayed Female,5 years,Labrador Retriever Mix,Chocolate/White,Anderson Mill Road And Centennial Trail,Austin ,TX,Anderson Mill Road And Centennial Trail Austin  TX,30.4471547,-97.8131757
406,406,3457,A777134,,2018-07-24 10:27:00,07/24/2018 10:27:00 AM,Stray,Normal,Cat,Intact Female,1 month,Domestic Medium Hair Mix,Black/White,5800 Lydian Drive,Austin ,TX,5800 Lydian Drive Austin  TX,30.2673678,-97.7282864
407,407,3458,A781849,,2018-10-06 15:03:00,10/06/2018 03:03:00 PM,Stray,Normal,Dog,Intact Female,1 month,Catahoula Mix,Brown/White,11700 Oak Trail,Austin ,TX,11700 Oak Trail Austin  TX,30.38301109999999,-97.6718732
408,408,3460,A785216,Figgy,2018-11-28 15:21:00,11/28/2018 03:21:00 PM,Stray,Normal,Dog,Intact Female,1 year,Tibetan Spaniel Mix,Tan,6501 Brush Country,Austin ,TX,6501 Brush Country Austin  TX,30.224713,-97.839361
409,409,3464,A770531,,2018-04-21 10:06:00,04/21/2018 10:06:00 AM,Stray,Injured,Cat,Spayed Female,10 years,Domestic Shorthair Mix,Calico,3800 Ih 35,Austin ,TX,3800 Ih 35 Austin  TX,30.2945566,-97.72043330000001
410,410,3485,A778844,,2018-08-21 12:30:00,08/21/2018 12:30:00 PM,Stray,Normal,Cat,Intact Male,4 weeks,Domestic Shorthair Mix,Black/White,1406 Sahara Avenue,Austin ,TX,1406 Sahara Avenue Austin  TX,30.2087769,-97.7937821
411,411,3487,A768629,Keyser Soze,2018-03-22 18:35:00,03/22/2018 06:35:00 PM,Stray,Normal,Dog,Neutered Male,1 year,Belgian Malinois Mix,Brown/Black,17207 Cameron Road,Pflugerville ,TX,17207 Cameron Road Pflugerville  TX,30.415283,-97.53744700000001
412,412,3492,A764549,,2018-01-01 12:59:00,01/01/2018 12:59:00 PM,Stray,Normal,Cat,Intact Female,12 years,Domestic Shorthair Mix,Brown Tabby,2202 Canterbury,Austin ,TX,2202 Canterbury Austin  TX,30.253982,-97.7211545
413,413,3494,A770697,Homer,2018-04-23 19:07:00,04/23/2018 07:07:00 PM,Stray,Aged,Dog,Neutered Male,14 years,Chihuahua Shorthair Mix,Tan/Fawn,814 King Albert,Austin ,TX,814 King Albert Austin  TX,30.2035874,-97.78762429999999
414,414,3501,A784138,,2018-11-12 13:56:00,11/12/2018 01:56:00 PM,Stray,Normal,Cat,Intact Female,1 month,Domestic Medium Hair Mix,Calico,7710 Blue Goose Road,Manor ,TX,7710 Blue Goose Road Manor  TX,30.3397605,-97.6069953
415,415,3513,A785744,*Falcon,2018-12-08 20:45:00,12/08/2018 08:45:00 PM,Stray,Injured,Dog,Intact Male,1 year,Flat Coat Retriever,Black,2935 E Hwy 71,Travis ,TX,2935 E Hwy 71 Travis  TX,30.2091818,-97.6479797
416,416,3525,A746101,Yukon,2018-04-16 10:51:00,04/16/2018 10:51:00 AM,Stray,Normal,Dog,Neutered Male,1 year,Siberian Husky,Black/White,Casting Drive,Manor ,TX,Casting Drive Manor  TX,30.3399495,-97.5257903
417,417,3532,A781047,,2018-09-24 07:12:00,09/24/2018 07:12:00 AM,Stray,Injured,Cat,Intact Male,2 weeks,Domestic Shorthair Mix,Black/White,Braker Ln And Dessau Rd,Austin ,TX,Braker Ln And Dessau Rd Austin  TX,30.3772573,-97.658583
418,418,3537,A771607,*Blue Bell,2018-05-07 14:14:00,05/07/2018 02:14:00 PM,Stray,Normal,Cat,Intact Male,1 weeks,Domestic Shorthair Mix,Cream,2200 Willow Creek Drive,Austin ,TX,2200 Willow Creek Drive Austin  TX,30.2306852,-97.7306797
419,419,3551,A774172,*Balky,2018-06-11 11:33:00,06/11/2018 11:33:00 AM,Stray,Normal,Cat,Intact Male,3 weeks,Domestic Shorthair Mix,Black/White,5801 Alomar Cove,Del Valle ,TX,5801 Alomar Cove Del Valle  TX,30.169217,-97.619068
420,420,3552,A612857,,2018-03-31 11:26:00,03/31/2018 11:26:00 AM,Stray,Normal,Cat,Neutered Male,7 years,Domestic Shorthair Mix,Orange Tabby,4705 Leatherleaf Trail,Austin ,TX,4705 Leatherleaf Trail Austin  TX,30.1896716,-97.7466675
421,421,3554,A772665,Groot,2018-05-22 12:36:00,05/22/2018 12:36:00 PM,Stray,Normal,Dog,Intact Male,5 months,Anatol Shepherd/Great Pyrenees,Cream/Black,North Lamar Boulevard And West Rundberg Lane,Austin ,TX,North Lamar Boulevard And West Rundberg Lane Austin  TX,30.363062,-97.6970274
422,422,3555,A770885,Jodi,2018-04-26 17:10:00,04/26/2018 05:10:00 PM,Stray,Normal,Dog,Intact Female,4 years,Chihuahua Shorthair Mix,Tan,400 East Brenham,Manor ,TX,400 East Brenham Manor  TX,30.33712939999999,-97.55536730000001
423,423,3562,A783104,,2018-10-25 11:43:00,10/25/2018 11:43:00 AM,Stray,Normal,Cat,Intact Male,3 months,Domestic Shorthair Mix,Brown Tabby/White,2001 Faro Drive,Austin ,TX,2001 Faro Drive Austin  TX,30.2287446,-97.7128305
424,424,3565,A769438,,2018-04-04 20:37:00,04/04/2018 08:37:00 PM,Stray,Normal,Dog,Intact Female,6 years,Maltese,White,Dessau,Austin ,TX,Dessau Austin  TX,30.3936039,-97.64486199999999
425,425,3581,A776082,Clementine,2018-07-08 14:47:00,07/08/2018 02:47:00 PM,Stray,Normal,Dog,Intact Female,1 month,Airedale Terrier Mix,Brown/White,North Lamar Boulevard And West Rundeberg Lane,Austin ,TX,North Lamar Boulevard And West Rundeberg Lane Austin  TX,30.363062,-97.6970274
426,426,3584,A776724,,2018-07-18 10:19:00,07/18/2018 10:19:00 AM,Stray,Nursing,Dog,Intact Female,3 days,Border Collie Mix,Black/White,9808 Sunflower Drive,Austin ,TX,9808 Sunflower Drive Austin  TX,30.1071054,-97.6788019
427,427,3585,A785973,,2018-12-13 18:41:00,12/13/2018 06:41:00 PM,Stray,Nursing,Dog,Unknown,2 weeks,Labrador Retriever Mix,Black,116 Stony Mont,Del Valle ,TX,116 Stony Mont Del Valle  TX,30.136588,-97.569745
428,428,3616,A766761,Gimly,2018-02-16 10:45:00,02/16/2018 10:45:00 AM,Stray,Normal,Dog,Neutered Male,2 years,Pit Bull Mix,Black/White,10208 Creek Crossing Cove,Austin ,TX,10208 Creek Crossing Cove Austin  TX,30.283935,-98.062187
